[{"name": "80m dipole (13-16) | Chichester UK", "lat": 50.84595, "lon": -0.66176, "url": "http://g8ure.ddns.net:8078", "users": 4, "users_max": 4, "bands": "0-30000000", "antenna": "80m Dipole", "location": "Chichester UK"}, {"name": "80m Four Square looking NW | Wales, UK", "lat": 52.5, "lon": -3.5, "url": "http://21595.proxy.kiwisdr.com", "users": 0, "users_max": 8, "bands": "0-30000000", "antenna": "80m four square looking NW", "location": "Wales, UK"}, {"name": "80m Dipole (5 to 8) | Chichester UK", "lat": 50.85, "lon": -0.66, "url": "http://g8ure.ddns.net:8075", "users": 4, "users_max": 4, "bands": "0-30000000", "antenna": "80m Dipole", "location": "Chichester UK"}, {"name": "80m Dipole (9 to 12) | Chichester UK", "lat": 50.85, "lon": -0.66, "url": "http://g8ure.ddns.net:8077", "users": 4, "users_max": 4, "bands": "0-30000000", "antenna": "80m Dipole", "location": "Chichester UK"}, {"name": "AutreRadioAutreCulture 2 | TREMOLAT (24), FRANCE", "lat": 44.86942, "lon": 0.83514, "url": "http://sdr.autreradioautreculture.com:8074", "users": 0, "users_max": 3, "bands": "3000-30000000", "antenna": "Vertical pylon isolated 11 meters", "location": "TREMOLAT (24), FRANCE"}, {"name": "Wessex Flydog - G8JNJ - 0-62MHz - South West UK", "lat": 50.80885, "lon": -2.47723, "url": "http://wessex.hopto.org:8075", "users": 2, "users_max": 4, "bands": "20000-62000000", "antenna": "Terminated Delta Loop 20m sides", "location": "South West England, UK"}, {"name": "F5MMX 2x15m doublet 7 AGL | IN95oc | FRANCE", "lat": 45.12115, "lon": -0.80647, "url": "http://f5mmx.proxy.kiwisdr.com", "users": 0, "users_max": 4, "bands": "0-30000000", "antenna": "2x15m doublet 7m AGL", "location": "IN95oc | FRANCE"}, {"name": "🗲 30 KHz-30 MHz 🗲 | Sobikow, Poland", "lat": 51.94, "lon": 21.18, "url": "http://jm55.proxy.kiwisdr.com", "users": 1, "users_max": 4, "bands": "0-30000000", "antenna": "dipole", "location": "Sobikow, Poland"}, {"name": "OH1CT - 160m dipole - Loppi, Finland", "lat": 60.67332, "lon": 24.47486, "url": "http://oh1ct.sytes.net:8073", "users": 3, "users_max": 7, "bands": "0-30000000", "antenna": "160m dipole", "location": "Loppi, Finland"}, {"name": "G3SDR, 0-32 MHz Kiwi 8076. Weston-super-Mare. Parallel dipoles for 160m, 80m, 60m & 40m. 5/8th Vertical for 28MHz. Wellb", "lat": 51.31727, "lon": -2.95048, "url": "http://g3sdr.com:8076", "users": 2, "users_max": 4, "bands": "0-30000000", "antenna": "Parallel dipoles for 160m, 80m, 60m & 40m. 5/8th Vertical with masthead preamp for 28MHz. Wellbrook Loop for VLF & MW.", "location": "Weston-super-Mare, United Kingdom"}, {"name": "0-30 MHz Funkamateure e.V. | Baunatal, Germany", "lat": 51.0755, "lon": 9.6155, "url": "http://178.63.122.223:8073", "users": 1, "users_max": 1, "bands": "0-30000000", "antenna": "T2FD", "location": "Baunatal, Germany"}, {"name": "EC2AQW 0-30 MHz SDR | ARANO (Navarra) Spain", "lat": 43.2, "lon": -1.9, "url": "http://21959.proxy.kiwisdr.com", "users": 1, "users_max": 3, "bands": "0-30000000", "antenna": "EndFed 40m long", "location": "ARANO (Navarra) Spain"}, {"name": "DF3LZ, KiwiSDR1 | Hamburg, Germany, 33m T2FD", "lat": 53.45212, "lon": 10.22103, "url": "http://85.183.11.108:8073", "users": 4, "users_max": 4, "bands": "0-30000000", "antenna": "T2FD", "location": "Hamburg, Germany, 33m T2FD"}, {"name": "DF3LZ, KiwiSDR2 | Hamburg, Germany", "lat": 53.45212, "lon": 10.22103, "url": "http://85.183.11.108:8074", "users": 1, "users_max": 2, "bands": "0-30000000", "antenna": "33m T2FD", "location": "Hamburg, Germany"}, {"name": "OH6HPS SDR, 160m horizontal loop, Muurame, Finland", "lat": 62.14905, "lon": 25.69318, "url": "http://oh6hps.ddns.net:8073", "users": 1, "users_max": 3, "bands": "0-30000000", "antenna": "160m horizontal loop", "location": "Muurame, Finland"}, {"name": "Wessex KiWi V2 - G8JNJ - 0-30MHz - South West UK", "lat": 50.74, "lon": -2.64, "url": "http://wessex.zapto.org:8074", "users": 3, "users_max": 4, "bands": "50000-30000000", "antenna": "(same as Wessex KiWi V1)", "location": "Wessex - KiwiSDR - G8JNJ - South West UK"}, {"name": "G3SDR, 0-32 MHz Kiwi 8073. Weston-super-Mare. Parallel dipoles for 160m, 80m, 60m & 40m. 5/8th Vertical for 28MHz. Wellb", "lat": 51.31727, "lon": -2.95048, "url": "http://g3sdr.com:8073", "users": 2, "users_max": 4, "bands": "0-30000000", "antenna": "Parallel dipoles for 160m, 80m, 60m & 40m. 5/8th Vertical with masthead preamp for 28MHz. Wellbrook Loop for VLF & MW.", "location": "Weston-super-Mare, United Kingdom"}, {"name": "G3SDR, 0-32 MHz Kiwi 8078. Weston-super-Mare. Parallel dipoles for 160m, 80m, 60m & 40m. 5/8th Vertical for 28MHz. Wellb", "lat": 51.31727, "lon": -2.95048, "url": "http://g3sdr.com:8078", "users": 1, "users_max": 4, "bands": "0-30000000", "antenna": "Parallel dipoles for 160m, 80m, 60m & 40m. 5/8th Vertical with masthead preamp for 28MHz. Wellbrook Loop for VLF & MW.", "location": "Weston-super-Mare, United Kingdom"}, {"name": "G3SDR, 0-32 MHz Kiwi 8079. Weston-super-Mare. Parallel dipoles for 160m, 80m, 60m & 40m. 5/8th Vertical for 28MHz. Wellb", "lat": 51.31727, "lon": -2.95048, "url": "http://g3sdr.com:8079", "users": 3, "users_max": 4, "bands": "0-30000000", "antenna": "Parallel dipoles for 160m, 80m, 60m & 40m. 5/8th Vertical with masthead preamp for 28MHz. Wellbrook Loop for VLF & MW.", "location": "Weston-super-Mare, United Kingdom"}, {"name": "Ireland North West 3", "lat": 54.22914, "lon": -9.31249, "url": "http://irelandnorthwest3.proxy.kiwisdr.com", "users": 3, "users_max": 4, "bands": "0-30000000", "antenna": "Dipole", "location": "Ireland"}, {"name": "Ireland North West 4", "lat": 54.22914, "lon": -9.31249, "url": "http://22424.proxy.kiwisdr.com", "users": 2, "users_max": 4, "bands": "0-30000000", "antenna": "Dipole", "location": "Ireland"}, {"name": "linkz - kiwi 2 | Isere, France", "lat": 45.40278, "lon": 5.27747, "url": "http://linkz.ddns.net:8074", "users": 4, "users_max": 4, "bands": "0-30000000", "antenna": "Horizontal 80m skywire loop (SV1AFN 4-way Splitter/Combiner > SV1AFN 1.8MHz High Pass Filter) - Use Kiwi 1 for LW/MW range", "location": "Isere, France"}, {"name": "2-30MHZ SDR #1, VK5ARG Remote Receiver Site | Near Tarlee, South Australia", "lat": -34.2737, "lon": 138.771, "url": "http://kiwisdr.areg.org.au:8073", "users": 1, "users_max": 4, "bands": "1800000-30000000", "antenna": "Broadband Monopole (\"J-Dart\")", "location": "Near Tarlee, South Australia"}, {"name": "G3SDR, 0-32 MHz Kiwi 8074. Weston-super-Mare. Parallel dipoles for 160m, 80m, 60m & 40m. 5/8th Vertical for 28MHz. Wellb", "lat": 51.31727, "lon": -2.95048, "url": "http://g3sdr.com:8074", "users": 3, "users_max": 4, "bands": "0-30000000", "antenna": "Parallel dipoles for 160m, 80m, 60m & 40m. 5/8th Vertical with masthead preamp for 28MHz. Wellbrook Loop for VLF & MW.", "location": "Weston-super-Mare, United Kingdom"}, {"name": "G3SDR, 0-32 MHz Kiwi 8077. Weston-super-Mare. Parallel dipoles for 160m, 80m, 60m & 40m. 5/8th Vertical for 28MHz. Wellb", "lat": 51.31727, "lon": -2.95048, "url": "http://g3sdr.com:8077", "users": 2, "users_max": 4, "bands": "0-30000000", "antenna": "Parallel dipoles for 160m, 80m, 60m & 40m. 5/8th Vertical with masthead preamp for 28MHz. Wellbrook Loop for VLF & MW.", "location": "Weston-super-Mare, United Kingdom"}, {"name": "0-30 MHz SDR TreDXK #3 | Tampere, Finland", "lat": 61.52506, "lon": 23.88977, "url": "http://tredxk.no-ip.org:8075", "users": 2, "users_max": 4, "bands": "0-30000000", "antenna": "Active loop east-west 9v1vv amplifier", "location": "Tampere, Finland"}, {"name": "80m Dipole (users 17 to 20) | Chichester UK", "lat": 50.84631, "lon": -0.66195, "url": "http://g8ure.ddns.net:8079", "users": 2, "users_max": 4, "bands": "0-30000000", "antenna": "80m Dipole", "location": "Chichester UK"}, {"name": "0-30 MHz SDR, Hurricane (Northern Germany)", "lat": 53.16102, "lon": 9.52521, "url": "http://hurricane.ddns.me:8073", "users": 0, "users_max": 3, "bands": "0-30000000", "antenna": "half-wave dipole", "location": "Hurricane (Northern Germany)"}, {"name": "Ireland North West.....Ireland", "lat": 54.22914, "lon": -9.31249, "url": "http://irelandnorthwest.proxy.kiwisdr.com", "users": 1, "users_max": 3, "bands": "0-30000000", "antenna": "Dipole", "location": "Ireland"}, {"name": "HB9ADJ | Roche VD Switzerland", "lat": 46.36, "lon": 6.92, "url": "http://22579.proxy.kiwisdr.com", "users": 2, "users_max": 4, "bands": "3500000-30000000", "antenna": "Hexbeam SP6CYN 14-30 Mhz", "location": "Roche VD Switzerland"}, {"name": "0-30 MHz SDR, HB9CWK Heimiswil, Switzerland", "lat": 47.05721, "lon": 7.64801, "url": "http://hb9cwk.internet-box.ch:8073", "users": 2, "users_max": 4, "bands": "0-30000000", "antenna": "Longwire", "location": "Heimiswil, Switzerland"}, {"name": "HB9BMR 0...30 MHz | Gurmels, Switzerland", "lat": 46.89239, "lon": 7.16314, "url": "http://21115.proxy.kiwisdr.com", "users": 0, "users_max": 4, "bands": "0-30000000", "antenna": "https://active-antenna.eu/ 2x1meter", "location": "Gurmels, Switzerland"}, {"name": "0-30 MHz SDR, OZ1AEF, Denmark", "lat": 56.08, "lon": 9.99, "url": "http://87.104.90.69:8073", "users": 0, "users_max": 4, "bands": "0-30000000", "antenna": "Just NOW 30 m Long Wire, 10 meter above ground", "location": "Skanderborg, Denmark"}, {"name": "0-30 MHz KiwiSDR 2 | Bernau bei Berlin, Germany", "lat": 52.67297, "lon": 13.54724, "url": "http://db0bbb.dnshome.de:8073", "users": 2, "users_max": 4, "bands": "0-30000000", "antenna": "Diamond WD-330J/S", "location": "Bernau bei Berlin, Germany"}, {"name": "DF0TWN KiwiSDR 30 Mhz SDR | Bad Bentheim , Germany", "lat": 52.30225, "lon": 7.17626, "url": "http://df0twn.dnsuser.de:8073", "users": 2, "users_max": 4, "bands": "0-30000000", "antenna": "Gap Vertical, 14 m high", "location": "Bad Bentheim , Germany"}, {"name": "0-30 MHz SDR, i1fqh - Casale Monferrato Italy", "lat": 45.13, "lon": 8.47, "url": "http://i1fqh.proxy.kiwisdr.com", "users": 1, "users_max": 4, "bands": "0-30000000", "antenna": "BEVERAGE 150 MT. north - sud", "location": "Conzano , Italy"}, {"name": "0-30 MHz SDR, Leiden, The Netherlans. Wellbrook ALA1530 loop antenna", "lat": 52.11, "lon": 4.57, "url": "http://kiwi-sdr1-leiden.impactam.nl:8073", "users": 0, "users_max": 4, "bands": "10000-30000000", "antenna": "ALA1530 LoopAntenna", "location": "Leiden, The Netherlans"}, {"name": "2-30MHZ SDR #2, VK5ARG Remote Receiver Site | Near Tarlee, South Australia", "lat": -34.2737, "lon": 138.771, "url": "http://kiwisdr.areg.org.au:8074", "users": 2, "users_max": 4, "bands": "2000000-30000000", "antenna": "Broadband Monopole (\"J-Dart\")", "location": "Near Tarlee, South Australia"}, {"name": "0-30MHz SDR VLF | Hamburg, Drage, 🇩🇪 Germany 🇩🇪", "lat": 53.41498, "lon": 10.27425, "url": "http://bern.proxy.kiwisdr.com", "users": 1, "users_max": 4, "bands": "0-30000000", "antenna": "VLF vertical V0.91 05/26", "location": "Hamburg, Drage, 🇩🇪 Germany 🇩🇪"}, {"name": "Web-SDR Friesland MW | Fryslan, the Netherlands", "lat": 53.19548, "lon": 5.98711, "url": "http://rffryslan.vosrx.nl:8073", "users": 0, "users_max": 4, "bands": "0-30000000", "antenna": "Inverted-v dipool, 2x45 m", "location": "Fryslan, the Netherlands"}, {"name": "0-30 MHz SDR, SK2HG, Siknas Fortress, Sweden", "lat": 65.86818, "lon": 22.6436, "url": "http://kiwisdr.sk2hg.se:8073", "users": 2, "users_max": 4, "bands": "0-30000000", "antenna": "Miltary type wideband dipole antenna (Hängmatta)", "location": "Siknas Sweden"}, {"name": "0-30 MHz SDR | ZW-Friesland, The Netherlands", "lat": 52.87, "lon": 5.57, "url": "http://81.172.193.108:8073", "users": 1, "users_max": 1, "bands": "0-30000000", "antenna": "Loops, slopers en mini-whip", "location": "ZW-Friesland, The Netherlands"}, {"name": "0-30 MHz SDR | Pommier de beaurepaire (38) France", "lat": 45.38403, "lon": 5.09346, "url": "http://f6abj-kiwihf.ddns.net:8074", "users": 3, "users_max": 4, "bands": "0-30000000", "antenna": "80m dipole 12 m above ground", "location": "Pommier de beaurepaire (38) France"}, {"name": "G3SDH. 0-30 MHz KiwiSDR. 80M Doublet at 9 Metres AGL | Near Bristol, UK", "lat": 51.31, "lon": -2.65, "url": "http://g3sdh.com:8053", "users": 1, "users_max": 4, "bands": "0-30000000", "antenna": "80M Doublet at 9M AGL", "location": "Near Bristol, UK"}, {"name": "0-30 MHz SDR by OZ1BFM | Vejby, Denmark", "lat": 56.08, "lon": 12.16, "url": "http://oz1bfm.proxy.kiwisdr.com", "users": 1, "users_max": 3, "bands": "0-30000000", "antenna": "OCF dipole shared with my HF radio", "location": "Vejby, Denmark"}, {"name": "10 kHz-30 MHz SDR, SM2BYC, Sweden", "lat": 65.9653, "lon": 24.03, "url": "http://sm2byc.ddns.net:8073", "users": 4, "users_max": 4, "bands": "10000-30000000", "antenna": "Active whip above 3 MHz, antenna switching below 3 MHz", "location": "Haparanda, Sweden"}, {"name": "Wessex KiWi V1 - G8JNJ - 0-30MHz - South West UK", "lat": 50.74, "lon": -2.63, "url": "http://wessex.zapto.org:8073", "users": 2, "users_max": 4, "bands": "50000-30000000", "antenna": "Switched", "location": "South West England, UK"}, {"name": "ENJOY BY F4JOY | PRADIERS DEP 15 JN15LG, FRANCE", "lat": 45.26972, "lon": 2.92413, "url": "http://f4joy.ddns.net:8073", "users": 3, "users_max": 4, "bands": "0-30000000", "antenna": "KELEMEN 80/40/20/15/10", "location": "PRADIERS DEP 15 JN15LG, FRANCE"}, {"name": "1.7-30 MHz SDR, HG5ACZ, Hungary, JN87pq, FD4 windom", "lat": 47.69104, "lon": 17.25326, "url": "http://hg5acz.ddns.net:8073", "users": 0, "users_max": 4, "bands": "1500000-30000000", "antenna": "Fritzel FD4 windom (80 - 10 m)", "location": "Bősárkány, Hungary"}, {"name": "0-30 MHz / Remote SP / SDR / Poland | Jędrzejów", "lat": 50.63943, "lon": 20.30466, "url": "http://sp7wk.proxy.kiwisdr.com", "users": 1, "users_max": 4, "bands": "0-30000000", "antenna": "Delta SP7LA", "location": "Jędrzejów"}, {"name": "Radiohill, Alberschwende, Austria, 995m asl, 80m long vertical loop", "lat": 47.44252, "lon": 9.84392, "url": "http://kiwi.oe9.oevsv.at:8073", "users": 8, "users_max": 8, "bands": "0-30000000", "antenna": "80m long vertical loop", "location": "Alberschwende, Austria"}, {"name": "OE5SLN Web-SDR | Mehrnbach, Upper Austria, Austria", "lat": 48.20328, "lon": 13.44254, "url": "http://178.115.248.93:8073", "users": 0, "users_max": 4, "bands": "0-30000000", "antenna": "usually rotary dipole, while being qrv mla-30 active loop", "location": "Mehrnbach, Upper Austria, Austria"}, {"name": "GM4RDX | N/E SCOTLAND", "lat": 57.44594, "lon": -1.95676, "url": "http://gm4rdx.proxy.kiwisdr.com", "users": 3, "users_max": 4, "bands": "0-30000000", "antenna": "320meters (1050feet long) skyloop Please Note! antenna maybe disconnected when used on hamradio station.", "location": "N/E SCOTLAND"}, {"name": "EI6IZ SDR #1 KiwiSDR V2 | Castlebar, Co Mayo, Ireland", "lat": 53.84, "lon": -9.37, "url": "http://kiwi.minish.org:8073", "users": 2, "users_max": 4, "bands": "100000-30000000", "antenna": "Active loop", "location": "Castlebar, Co Mayo, Ireland"}, {"name": "🇳🇱 ► PB8W ◀ 🇳🇱 ► Willem ◀ 🇳🇱 ► PAHGOR active loop sn:001 ◀ 🇳🇱 | Assen | Netherlands", "lat": 52.98, "lon": 6.49, "url": "http://pb8w.proxy.kiwisdr.com", "users": 1, "users_max": 4, "bands": "0-30000000", "antenna": "Active Loop antenna PAHGOR (serial nr: 001) built by <b>► PA0EBC ◀</b> &#128077;", "location": "Assen | Netherlands"}, {"name": "F5LFE - North Burgundy KiwiSDR 0-30 MHZ | Marsangy (89), France", "lat": 48.11961, "lon": 3.24148, "url": "http://www.f5lfe.fr:8073", "users": 0, "users_max": 3, "bands": "0-30000000", "antenna": "can be 31 meters EFRW or horizontal delta loop 83 meters depending the needs.", "location": "Marsangy (89), France"}, {"name": "G3SDR, 0-32 MHz Kiwi 8075. Weston-super-Mare. Parallel dipoles for 160m, 80m, 60m & 40m. 5/8th Vertical for 28MHz. Wellb", "lat": 51.31727, "lon": -2.95048, "url": "http://g3sdr.com:8075", "users": 2, "users_max": 4, "bands": "0-30000000", "antenna": "Parallel dipoles for 160m, 80m, 60m & 40m. 5/8th Vertical with masthead preamp for 28MHz. Wellbrook Loop for VLF & MW.", "location": "Weston-super-Mare, United Kingdom"}, {"name": "KiwiSDR-2 PA8AD | De Kiel, Netherlands", "lat": 52.85592, "lon": 6.73713, "url": "http://pa8ad-2.proxy.kiwisdr.com", "users": 0, "users_max": 2, "bands": "0-30000000", "antenna": "22m long vertical / 64 radials", "location": "De Kiel, Netherlands"}, {"name": "Fenu-Radio Kiwi2-SDR | Kefikon / Switzerland", "lat": 47.54825, "lon": 8.83074, "url": "http://fenuradio-kiwi2.ddns.net:8074", "users": 1, "users_max": 4, "bands": "0-30000000", "antenna": "Activdipole Datong AD370 and others", "location": "Kefikon / Switzerland"}, {"name": "0-30 MHz SDR | Luedinghausen", "lat": 51.78098, "lon": 7.52986, "url": "http://vampir.proxy.kiwisdr.com", "users": 0, "users_max": 4, "bands": "0-30000000", "antenna": "10m vertical wire", "location": "Luedinghausen"}, {"name": "Björnholmen KIWi WebSDR | Stockholm archipelago", "lat": 59.34, "lon": 18.62, "url": "http://22639.proxy.kiwisdr.com", "users": 4, "users_max": 4, "bands": "10000-30000000", "antenna": "Carolina Windom", "location": "Stockholm archipelago"}, {"name": "0-30 MHZ Funkfreunde Werratal | Tiefenort-Krayenburg,Germany", "lat": 50.83564, "lon": 10.12923, "url": "http://4xe4gzz9q3vzm153.myfritz.net:8073", "users": 4, "users_max": 4, "bands": "0-30000000", "antenna": "Blizzard 2700", "location": "Tiefenort-Krayenburg,Germany"}, {"name": "0-30 MHz SDR #2, SM0KOT, Sweden | Mala, Northern Sweden.", "lat": 65.08, "lon": 18.63, "url": "http://aspliden.kostet.se:8074", "users": 1, "users_max": 3, "bands": "0-30000000", "antenna": "", "location": "Mala, Northern Sweden."}, {"name": "DL4EECKiwi | Wangerland, Germany", "lat": 53.63197, "lon": 7.90787, "url": "http://dl4eeckiwi.proxy.kiwisdr.com", "users": 0, "users_max": 4, "bands": "0-30000000", "antenna": "End feed L Antenne 42m long or R&S HA178 broadband vertical", "location": "Wangerland, Germany"}, {"name": "EA5JGN | Hondon Valley SDR | Spain", "lat": 38.31, "lon": -0.9, "url": "http://ei2hh.proxy.kiwisdr.com", "users": 2, "users_max": 4, "bands": "150000-30000000", "antenna": "Delta loop", "location": "Spain"}, {"name": "0-30 MHz FlyDog-SDR, IW3HBX - Noale 🇮🇹 Italy 🇮🇹", "lat": 45.54862, "lon": 12.06349, "url": "http://iw3hbx.ddns.net:5555", "users": 4, "users_max": 4, "bands": "0-32000000", "antenna": "Home‑built active loop (ALA1530‑style, east/west)", "location": "Noale, Italy"}, {"name": "DL7VDX SDR 0-30MHz Ant: Cushcraft R7000 | Werneuchen, Brandenburg, Germany", "lat": 52.65822, "lon": 13.78117, "url": "http://sdr.dl7vdx.com", "users": 0, "users_max": 4, "bands": "0-30000000", "antenna": "Cushcraft R7000", "location": "Werneuchen, Brandenburg, Germany"}, {"name": "IK1YRA Public HF Kiwisdr2 Multi Mode Rx | Near Viverone Lake, Italy", "lat": 45.43, "lon": 8.06, "url": "http://21262.proxy.kiwisdr.com", "users": 0, "users_max": 3, "bands": "100000-22000000", "antenna": "ANTENNA: 60 meters LW but when I'm using my TX the rx antenna is swichted to a LZ1AQ Loop-", "location": "Near Viverone Lake, Italy"}, {"name": "kiwiSDR Receiver of 0-30 MHz | | Rome Italy UE | IZ0INA", "lat": 41.91086, "lon": 12.57463, "url": "http://kiwisdr-iz0ina.ns0.it:8073", "users": 0, "users_max": 4, "bands": "0-30000000", "antenna": "Off-Center Feed Dipole Antenna for 10, 20, 40m, 21m Long, N/S Direction + 0-54MHz Low Pass Filter", "location": "Rome Italy UE | IZ0INA"}, {"name": "KiwiSDR-1 PA8AD | De Kiel, Netherlands", "lat": 52.85592, "lon": 6.73713, "url": "http://pa8ad-1.proxy.kiwisdr.com", "users": 0, "users_max": 2, "bands": "0-30000000", "antenna": "Vertical 11m", "location": "De Kiel, Netherlands"}, {"name": "EI6IZ SDR #1 KiwiSDR V2 | Castlebar, Co Mayo, Ireland", "lat": 53.84, "lon": -9.37, "url": "http://88.81.100.130:8073", "users": 1, "users_max": 4, "bands": "100000-30000000", "antenna": "Active loop", "location": "Castlebar, Co Mayo, Ireland"}, {"name": "0-30 MHz KIWI SDR form DL0HGN/DQ1V | Germany, Hagenow", "lat": 53.40219, "lon": 11.21873, "url": "http://kiwisdr.dl0hgn.ipv64.net", "users": 1, "users_max": 3, "bands": "0-30000000", "antenna": "Dipol for 160 meters", "location": "Germany, Hagenow"}, {"name": "0-30 MHz KiwiSDR #2, DC9FD, Fulda, Germany, ALA1530LN", "lat": 50.54345, "lon": 9.46498, "url": "http://ko9xjv5u227qbxwa.myfritz.net:8073", "users": 2, "users_max": 3, "bands": "0-30000000", "antenna": "ALA1530LN, E<->W direction", "location": "Fulda, Germany"}, {"name": "linkz - kiwi 3 | Isere, France", "lat": 45.40278, "lon": 5.27747, "url": "http://linkz.ddns.net:8075", "users": 1, "users_max": 4, "bands": "0-30000000", "antenna": "Cushcraft R8 vertical", "location": "Isere, France"}, {"name": "SDR Esbjerg - Denmark - 0-30 MHz", "lat": 55.50076, "lon": 8.4157, "url": "http://21086.proxy.kiwisdr.com", "users": 0, "users_max": 3, "bands": "0-30000000", "antenna": "Longwire 20 meters north-south", "location": "Esbjerg, Denmark"}, {"name": "0-30 MHz SDR | Kloosterhaar, Overijssel, The Netherlands", "lat": 52.4958, "lon": 6.67205, "url": "http://21366.proxy.kiwisdr.com", "users": 0, "users_max": 3, "bands": "0-30000000", "antenna": "LZ1AQ Active loop NW-ZO", "location": "Kloosterhaar, Overijssel, The Netherlands"}, {"name": "0-30 MHz SDR, OE3AKB,Oberwoelbling, AUSTRIA", "lat": 48.32, "lon": 15.58, "url": "http://oe3akb.ddns.net:8073", "users": 1, "users_max": 4, "bands": "0-30000000", "antenna": "Cross-Loop and Activ Antenna Amplifier by LZ1AQ Model AAA-1C", "location": "Lower Austria / Austria"}, {"name": "0-30 MHz SDR | 52249 Eschweiler - Germany", "lat": 50.80546, "lon": 6.26035, "url": "http://85.197.7.178:8073", "users": 0, "users_max": 4, "bands": "0-30000000", "antenna": "MegaAktiv MA305FT (BONITO) 9KHz-300MHz", "location": "52249 Eschweiler - Germany"}, {"name": "OL1F 1-30 MHz SDR, 268m ASL | Velvary, Czech Republic", "lat": 50.27, "lon": 14.25, "url": "http://21684.proxy.kiwisdr.com", "users": 1, "users_max": 2, "bands": "1000000-30000000", "antenna": "82m Delta Loop", "location": "Velvary, Czech Republic"}, {"name": "0-30 MHz KiwiSDR-F6ABJ-France", "lat": 45.38403, "lon": 5.09346, "url": "http://f6abj-kiwihf.ddns.net:8075", "users": 3, "users_max": 4, "bands": "10000-30000000", "antenna": "80m half wave dipole 10m above ground", "location": "Pommier de Beaurepaire (38) France"}, {"name": "OH5AE OH5R SDR | Elimäki, Finland", "lat": 60.72, "lon": 26.41, "url": "http://oh5ae.dyndns.org:8073", "users": 5, "users_max": 7, "bands": "0-30000000", "antenna": "80m Horizontal Loop", "location": "Elimäki, Finland"}, {"name": "Lippis-KiWi-SDR-1 | Freital, Germany", "lat": 51.00087, "lon": 13.65124, "url": "http://swl-lippi-1.stbach.de", "users": 1, "users_max": 4, "bands": "0-30000000", "antenna": "4m(East/West) Loop+amplf.", "location": "Freital, Germany"}, {"name": "0-30 MHz KiwiSDR2 - Doublet 2x17meter | Zierikzee, (SW) Netherlands", "lat": 51.64804, "lon": 3.91609, "url": "http://21886.proxy.kiwisdr.com", "users": 4, "users_max": 4, "bands": "0-30000000", "antenna": "Doublet (2x17meter)", "location": "Zierikzee, (SW) Netherlands"}, {"name": "SM5AJV 0-30 MHz SDR | Heby, Sweden", "lat": 59.94, "lon": 16.94, "url": "http://websdr.qrq.se", "users": 1, "users_max": 3, "bands": "0-30000000", "antenna": "R7 + Pre-Amp", "location": "Heby, Sweden"}, {"name": "SM7IUN 0-30 MHz SDR | Bjärred, Sweden", "lat": 55.72, "lon": 13.01, "url": "http://websdr.sm7iun.se:8073", "users": 4, "users_max": 4, "bands": "0-30000000", "antenna": "FD4 OCF dipole 10m over ground. Poor below 2MHz.", "location": "Bjärred, Sweden"}, {"name": "0-30 MHz SDR | (51.821407, 7.918051)", "lat": 51.82141, "lon": 7.91805, "url": "http://dk0ep.proxy.kiwisdr.com", "users": 0, "users_max": 3, "bands": "0-30000000", "antenna": "Dipole 2x25m", "location": "(51.821407, 7.918051)"}, {"name": "SK5SM | Sweden", "lat": 58.55, "lon": 15.04, "url": "http://sk5sm.proxy.kiwisdr.com", "users": 1, "users_max": 4, "bands": "0-30000000", "antenna": "41 m EFHW", "location": "Sweden"}, {"name": "0-30 MHz SDR, DX.CZ | Marianske Lazne, Czech", "lat": 49.94, "lon": 12.56, "url": "http://109.164.114.15:8073", "users": 2, "users_max": 3, "bands": "0-30000000", "antenna": "Ala Wellbrook, active-antenna.eu, 300m Beverage USA/Asie, Invert \"V\" ... Antenna switch only for CZDX club members.", "location": "Marianske Lazne, Czech"}, {"name": "linkz - kiwi 1 | Isere, France", "lat": 45.40277, "lon": 5.27738, "url": "http://linkz.ddns.net:8073", "users": 2, "users_max": 4, "bands": "0-30000000", "antenna": "LZ1AQ AAA-1D", "location": "Isere, France"}, {"name": "0-30 MHz SDR | [N0BQV] [Republic, Missouri. USA", "lat": 37.16428, "lon": -93.57114, "url": "http://n0bqv.proxy.kiwisdr.com", "users": 3, "users_max": 7, "bands": "10000-30000000", "antenna": "40-75 meter Inverted Vee, feed point @ 75 Feet, 23 Meters....Please check in with call or name.", "location": "[N0BQV] [Republic, Missouri. USA"}, {"name": "🟢⚪🔴 IZ6198SWL Radio Station 🟢⚪🔴 Alvito Central Italy | G5RV Full Size Antenna 🛰️ | Solar-Powered ☀️📡🇮🇹", "lat": 41.69474, "lon": 13.75925, "url": "http://iz6198swl.proxy.kiwisdr.com", "users": 1, "users_max": 4, "bands": "0-30000000", "antenna": "G5RV Full Size Dir. N/S", "location": "Alvito, Italy 0-30 MHz Frequencies"}, {"name": "0-30 MHz SDR, G3XOU | Tavistock, Devon, UK", "lat": 50.53, "lon": -4.13, "url": "http://82.69.125.202:8073", "users": 0, "users_max": 3, "bands": "0-30000000", "antenna": "204 foot Doublet", "location": "Tavistock, Devon, UK"}, {"name": "0-52 MHz SDR VISEU PORTUGAL PICAMIOLOS", "lat": 40.71, "lon": -8.05, "url": "http://tsunami.sytes.net:8073", "users": 1, "users_max": 1, "bands": "0-30000000", "antenna": "", "location": "VISEU PORTUGAL"}, {"name": "0-30 MHz SDR, Grötö, Sweden", "lat": 57.69132, "lon": 11.68492, "url": "http://sk6ag3.ddns.net:8073", "users": 2, "users_max": 4, "bands": "0-30000000", "antenna": "80m dipol", "location": "Grötö, Sweden"}, {"name": "███ 0-30 MHz SDR #3, VK5PH, Ironstone Range, South Australia ███", "lat": -34.96444, "lon": 138.76238, "url": "http://sdr.ironstonerange.com:8075", "users": 0, "users_max": 4, "bands": "0-30000000", "antenna": "12m Duoconical Antenna", "location": "Ironstone Range, South Australia"}, {"name": "0-30 MHz SDR, PI4AMF, Arkemheense Polder (Nijkerk GLD), Netherlands", "lat": 52.2402, "lon": 5.42978, "url": "http://62.45.81.168:8073", "users": 0, "users_max": 3, "bands": "0-30000000", "antenna": "Active Loop Antenna", "location": "Polder Arkemheen (Nijkerk, GLD), Netherlands"}, {"name": "LA1PLA KiwiSDR | Hustadvika, Norway", "lat": 62.81539, "lon": 7.14847, "url": "http://la1plahf.zapto.org:23463", "users": 1, "users_max": 3, "bands": "0-30000000", "antenna": "80 Meter Multiband Loop", "location": "Hustadvika, Norway"}, {"name": "HB9VQQ, Spiderbeam Yagi 40-20-15-17-12-10 | Hinwil,Switzerland", "lat": 47.30572, "lon": 8.84817, "url": "http://kiwiv2.hb9vqq.ch:8074", "users": 0, "users_max": 8, "bands": "0-30000000", "antenna": "Spiderbeam Yagi", "location": "Hinwil,Switzerland"}, {"name": "0-30 MHz SDR | Viestikallio OH2MOH, Artjärvi, Finland", "lat": 60.73436, "lon": 26.21114, "url": "http://oh2moh.proxy.kiwisdr.com", "users": 1, "users_max": 1, "bands": "0-30000000", "antenna": "Log Periodic", "location": "Viestikallio OH2MOH, Artjärvi, Finland"}, {"name": "0-30 MHz SDR, DL1BAJ | Hooksiel, Germany", "lat": 53.63067, "lon": 8.02629, "url": "http://dl1bajkiwisdr.ddns.net:8074", "users": 0, "users_max": 4, "bands": "0-30000000", "antenna": "MegaLoop FX 15m", "location": "Hooksiel, Germany"}, {"name": "S53A | Polsece Slovenia 900m ASL", "lat": 45.83, "lon": 14.49, "url": "http://21909.proxy.kiwisdr.com", "users": 1, "users_max": 3, "bands": "0-30000000", "antenna": "40m 2 el beam; 14-28 3 el tribander", "location": "Polsece Slovenia 900m ASL"}, {"name": "0-30 MHz KiwiSDR-2 Goetzberg @ DL4HAO/p", "lat": 53.78858, "lon": 10.06779, "url": "http://22428.proxy.kiwisdr.com", "users": 1, "users_max": 4, "bands": "0-30000000", "antenna": "Stampfl Active Dipole 0.02-60 MHz", "location": "Goetzberg, Northern Germany"}, {"name": "SV2CSN 0-30 MHz SDR FROM EDESSA GREECE", "lat": 40.80955, "lon": 22.07023, "url": "http://21900.proxy.kiwisdr.com", "users": 1, "users_max": 3, "bands": "0-30000000", "antenna": "Multiband dipole", "location": "EDESSA, GREECE"}, {"name": "0-30 MHz SDR | Coimbra, Portugal", "lat": 40.21193, "lon": -8.4266, "url": "http://hjf2014.ddns.net:8073", "users": 0, "users_max": 4, "bands": "0-30000000", "antenna": "Various Antennas. Default Antenna: T2FD", "location": "Coimbra, Portugal"}, {"name": "DG3SDK | 0-30 MHz SDR | Esslingen, Germany", "lat": 48.74502, "lon": 9.32212, "url": "http://kiwi.dg3sdk.de", "users": 1, "users_max": 4, "bands": "0-30000000", "antenna": "long wire", "location": "Esslingen, Germany"}, {"name": "0-30 MHz DH8WR Rudolstadt JO50QR Ant. 80m Delta Loop vert. full size", "lat": 50.7183, "lon": 11.3337, "url": "http://22355.proxy.kiwisdr.com", "users": 8, "users_max": 8, "bands": "0-30000000", "antenna": "80m Delta Loop vert. full size", "location": "Rudolstadt"}, {"name": "Finningley ARS | Doncaster, UK", "lat": 53.56, "lon": -0.88, "url": "http://g0ghk.uk:8050", "users": 1, "users_max": 1, "bands": "0-32000000", "antenna": "Active Loop", "location": "Doncaster, UK"}, {"name": "███ 0-30 MHz SDR #1, VK5PH, Ironstone Range, South Australia ███", "lat": -34.96444, "lon": 138.76238, "url": "http://sdr.ironstonerange.com:8073", "users": 2, "users_max": 4, "bands": "0-30000000", "antenna": "12m Duoconical Antenna", "location": "Ironstone Range, South Australia"}, {"name": "███ 0-30 MHz SDR #2, VK5PH, Ironstone Range, South Australia ███", "lat": -34.96444, "lon": 138.76238, "url": "http://sdr.ironstonerange.com:8074", "users": 0, "users_max": 4, "bands": "0-30000000", "antenna": "12m Duoconical Monopole Antenna", "location": "Ironstone Range, South Australia"}, {"name": "0-30 MHz KiwiSDR,Julussdalen#1, Elverum - Norway", "lat": 61.03764, "lon": 11.68917, "url": "http://julussdalen1.proxy.kiwisdr.com", "users": 3, "users_max": 8, "bands": "0-30000000", "antenna": "Wellbrook ALA1530LNP 227° / 47° (Uk-S.AM / Japan-NZ)", "location": "Elverum, Norway"}, {"name": "0-30 MHz SDR, HB9RLM | Zielebach Switzerland", "lat": 47.16016, "lon": 7.58043, "url": "http://hb9rlm.ddns.net:8073", "users": 0, "users_max": 4, "bands": "0-30000000", "antenna": "W2000", "location": "Zielebach Switzerland"}, {"name": "0-30 MHz SDR, Daniele IK2WBG, Como (CO) ITALY", "lat": 45.80139, "lon": 9.12719, "url": "http://ik2wbg-proxy.proxy.kiwisdr.com", "users": 1, "users_max": 4, "bands": "0-30000000", "antenna": "~40m wire", "location": "Como, Italy"}, {"name": "SUOMEN DX-LIITTO (SDXL-VIR) FINNISH DX-ASSOCIATION (FDXA) 170m BOG 250 deg VIRRAT, POHJOIS-HÄME FINLAND 🇫🇮", "lat": 62.26565, "lon": 24.03218, "url": "http://sdxlkiwi7.proxy.kiwisdr.com", "users": 1, "users_max": 4, "bands": "0-30000000", "antenna": "Active Antenna 1m loop", "location": "Kotala, Virrat, Finland"}, {"name": "0-30 MHz SDR, | Poland, Warsaw", "lat": 52.25988, "lon": 20.95719, "url": "http://warszawa.proxy.kiwisdr.com", "users": 4, "users_max": 4, "bands": "0-30000000", "antenna": "Test", "location": "Poland, Warsaw"}, {"name": "DL8LAS-2 Trent 0-30 MHz SDR", "lat": 54.20598, "lon": 10.36448, "url": "http://21952.proxy.kiwisdr.com", "users": 2, "users_max": 4, "bands": "0-30000000", "antenna": "HIZ 7m vertical", "location": "Trent JO54EF, Germany"}, {"name": "KIWISDR KOTKA • SUOMEN DX-LIITTO (SDXL) • FINNISH DX-ASSOCIATION (FDXA) • KOTKA, FINLAND🇫🇮", "lat": 60.45591, "lon": 26.9404, "url": "http://sauna.psokotka.com:8075", "users": 1, "users_max": 4, "bands": "0-30000000", "antenna": "Ø1,60m loop with Wellgood V4.1", "location": "Kotka, Finland 🇫🇮"}, {"name": "DL8LAS Trent, 0-30 MHz SDR", "lat": 54.20598, "lon": 10.36448, "url": "http://dl8las.proxy.kiwisdr.com", "users": 1, "users_max": 4, "bands": "0-30000000", "antenna": "Active Vertical Loop", "location": "Trent JO54EF, Deutschland"}, {"name": "JA5FP 40m | Chiba, Japan", "lat": 35.66792, "lon": 140.172, "url": "http://ja5fp2.proxy.kiwisdr.com", "users": 3, "users_max": 4, "bands": "5000000-10000000", "antenna": "EndFed", "location": "Chiba, Japan"}, {"name": "0-30 MHz SDR DO6DOC Andi | Dortmund, Germany", "lat": 51.5, "lon": 7.41, "url": "http://kiwisdr.serveftp.com:8073", "users": 0, "users_max": 4, "bands": "0-30000000", "antenna": "80-10m Trap Dipol 13m above Ground, Gainmaster 10m Vertical via SDR Combiner", "location": "Dortmund, Germany"}, {"name": "F6KOH SHTSF | Le Havre, France", "lat": 49.51, "lon": 0.16, "url": "http://shtsf.ddns.net:8073", "users": 2, "users_max": 4, "bands": "0-30000000", "antenna": "Center Feed (Levy)", "location": "Le Havre, France"}, {"name": "0-30 MHz SDR, SK6AG | Borås", "lat": 57.72, "lon": 13.07, "url": "http://sk6ag2.ddns.net:8072", "users": 0, "users_max": 4, "bands": "0-30000000", "antenna": "Dipol", "location": "Borås"}, {"name": "DL0WH | Weinheim, nr Heidelberg, Germany", "lat": 49.57318, "lon": 8.62206, "url": "http://db0whm.hamnet.network:8073", "users": 1, "users_max": 4, "bands": "9000-30000000", "antenna": "DL4ZAO MiniWhip Pro+ (4m AGL) <a href", "location": "Weinheim, nr Heidelberg, Germany"}, {"name": "G3SDH. 0-30 MHz KiwiSDR. Wellbrook Loop. | Near Bristol, UK", "lat": 51.31, "lon": -2.65, "url": "http://g3sdh.com:8054", "users": 0, "users_max": 4, "bands": "0-30000000", "antenna": "Wellbrook Loop", "location": "Near Bristol, UK"}, {"name": "EI5IN | Ireland Central | Mullingar | Westmeath | 580m/1900ft Beverage NE/SW", "lat": 53.58, "lon": -7.35, "url": "http://44.31.191.63:8073", "users": 1, "users_max": 4, "bands": "0-10000000", "antenna": "Beverage NE/SW 580m long", "location": "Mullingar, Westmeath, Ireland"}, {"name": "DK2KV Oberhausen/Oberbayern", "lat": 47.774, "lon": 11.131, "url": "http://22956.proxy.kiwisdr.com", "users": 0, "users_max": 4, "bands": "2000000-30000000", "antenna": "Vertical 6 m", "location": "Oberhausen"}, {"name": "KiwiSDR Maakeski • Suomen DX-Liitto (SDXL) • Finnish DX-Association (FDXA) • PADASJOKI, FINLAND🇫🇮", "lat": 61.29188, "lon": 25.3131, "url": "http://maakeski.psokotka.com:8076", "users": 2, "users_max": 4, "bands": "0-30000000", "antenna": "Super KAZ 220° (experimental)", "location": "Padasjoki, Finland 🇫🇮"}, {"name": "SUOMEN DX-LIITTO (SDXL-PAL) • FINNISH DX-ASSOCIATION (FDXA) • MEGADIPOL • PALLAS, ENONTEKIÖ, LAPLAND, FINLAND 🇫🇮", "lat": 68.17069, "lon": 24.15744, "url": "http://pallas-kiwi.ddns.net:8073", "users": 0, "users_max": 4, "bands": "0-30000000", "antenna": "NTi MegaDipol (v)", "location": "Pallas, Enontekiö, Finland"}, {"name": "PE1OPQ | Netherlands", "lat": 53.08, "lon": 6.8, "url": "http://radio-tpot.proxy.kiwisdr.com", "users": 1, "users_max": 3, "bands": "0-30000000", "antenna": "loop antenna", "location": "Netherlands"}, {"name": "G4ZFE 0-30 MHz SDR | Bracknell, 🇬🇧 United Kingdom", "lat": 51.43, "lon": -0.73, "url": "http://21818.proxy.kiwisdr.com", "users": 2, "users_max": 4, "bands": "0-30000000", "antenna": "LZ1AQ 2 x 1m loops", "location": "Bracknell, 🇬🇧 United Kingdom"}, {"name": "0-30 MHz EA8CHC SDR | SkyLoop Ant | SEVILLE, SOUTH SPAIN", "lat": 37.35, "lon": -6.14, "url": "http://ea8chc-kiwisdr.ddns.net:8070", "users": 0, "users_max": 4, "bands": "0-30000000", "antenna": "BigSignal SkyLoop", "location": "Bollullos de la Mitacion, Seville, Spain"}, {"name": "Kernow - G8JNJ - 10KHz-30MHz SDR - Cornwall - South West UK", "lat": 50.05, "lon": -5.18, "url": "http://kernow.hopto.org:8073", "users": 0, "users_max": 4, "bands": "10000-30000000", "antenna": "Active dipole", "location": "Kernow - Cornwall - South West UK"}, {"name": "PE1MUQ | Netherlands", "lat": 52.31571, "lon": 5.97106, "url": "http://pe1muq.proxy.kiwisdr.com", "users": 0, "users_max": 3, "bands": "0-30000000", "antenna": "Loop NNE/SSW with LZ1AQ preamp <B>(no antenna when transmitting)</B>", "location": "Emst, Netherlands"}, {"name": "0-32 MHz SDR, Pardinho, SP - Brazil", "lat": -23.10561, "lon": -48.37871, "url": "http://pardinho.websdr.com.br:8073", "users": 2, "users_max": 4, "bands": "0-32000000", "antenna": "G5RV Double (160m)", "location": "Little Paradise Farm- Pardinho -SP, BRAZIL"}, {"name": "VK2GGC SDR2: 0-30MHz T2FD DIPOLE - HUNTER VALLEY NSW AUSTRALIA", "lat": -32.525, "lon": 151.7544, "url": "http://vk2ggc.ddns.net:8074", "users": 2, "users_max": 2, "bands": "0-30000000", "antenna": "1-30MHz T2FD wideband dipole antenna @ 50'", "location": "Hunter Valley NSW Australia"}, {"name": "0-30 MHZ KIWISDR - DO9PL & 13RC811 - METTMANN / NEANDERTAL - JO31LG - GERMANY", "lat": 51.2545, "lon": 6.98397, "url": "http://13rc811.ddns.net:8073", "users": 0, "users_max": 8, "bands": "0-30000000", "antenna": "Fritzel GPA30 Special Edition by DO9PL", "location": "METTMANN / NEANDERTAL - JO31LG - GERMANY"}, {"name": "0-30 MHz KIWIsdr SP1EXB | Stare Wierzchowo, POLAND", "lat": 53.85, "lon": 16.68, "url": "http://87.251.229.127:8073", "users": 3, "users_max": 4, "bands": "10000-30000000", "antenna": "GP", "location": "Stare Wierzchowo, POLAND"}, {"name": "0-30 MHz SDR, DK0TE, DHBW Ravensburg Campus Friedrichshafen, Germany", "lat": 47.66502, "lon": 9.44819, "url": "http://kiwisdr.inf.dhbw-ravensburg.de:8073", "users": 0, "users_max": 4, "bands": "0-30000000", "antenna": "T2FD in attic.", "location": "Friedrichshafen, Germany"}, {"name": "ik4mtc | collecchio, italy", "lat": 44.74, "lon": 10.19, "url": "http://21887.proxy.kiwisdr.com", "users": 0, "users_max": 4, "bands": "0-30000000", "antenna": "ad370r active dipole-Maxi whip 10 meters high- Mini whip pa0rdt", "location": "collecchio, italy"}, {"name": "Hamburg Metropol south | Germany", "lat": 53.43, "lon": 9.77, "url": "http://kiwisdr.dynpc.net:8073", "users": 2, "users_max": 4, "bands": "0-30000000", "antenna": "Endfeed 9m", "location": "Germany"}, {"name": "M7ILU SDR | Crowthorne, Berkshire, RG45 6HB", "lat": 51.37, "lon": -0.81, "url": "http://m7ilu.proxy.kiwisdr.com", "users": 0, "users_max": 8, "bands": "0-30000000", "antenna": "EFHW", "location": "Crowthorne, Berkshire, RG45 6HB"}, {"name": "0-30 MHz SDR, DL/JO43UG, Tostedt, northern Germany", "lat": 53.29, "lon": 9.74, "url": "http://nordheide2.proxy.kiwisdr.com", "users": 0, "users_max": 4, "bands": "0-30000000", "antenna": "various", "location": "Tostedt, Germany"}, {"name": "Bedford UK 0-30 MHz V2 KiwiSDR", "lat": 52.12, "lon": -0.45, "url": "http://remoteradio.changeip.org:8086", "users": 0, "users_max": 3, "bands": "0-30000000", "antenna": "Various, use Ant switch to choose antenna.", "location": "Bedford, England, UK"}, {"name": "Lippis-KiWi-SDR-2 | FREITAL, GERMANY", "lat": 51.01, "lon": 13.68, "url": "http://swl-lippi-2.stbach.de", "users": 0, "users_max": 4, "bands": "0-30000000", "antenna": "LZ1AQ West/East", "location": "FREITAL, GERMANY"}, {"name": "0-30 MHz SDR | Woking, England", "lat": 51.3, "lon": -0.63, "url": "http://145.40.178.33:8073", "users": 0, "users_max": 4, "bands": "0-30000000", "antenna": "EF", "location": "Woking, England"}, {"name": "ARI-Isola d'Ischia M.te Epomeo", "lat": 40.73015, "lon": 13.90228, "url": "http://82.85.225.234:8073", "users": 1, "users_max": 4, "bands": "0-30000000", "antenna": "G5RV", "location": "Ischia, Italy"}, {"name": "Hofmann's SDR 2 | Thamsbrück, Germany", "lat": 51.14004, "lon": 10.63839, "url": "http://21918.proxy.kiwisdr.com", "users": 0, "users_max": 2, "bands": "0-30000000", "antenna": "Long Wire Antenna", "location": "Thamsbrück, Germany"}, {"name": "LA3L Larvik Norway", "lat": 59.0313, "lon": 9.96337, "url": "http://22207.proxy.kiwisdr.com", "users": 0, "users_max": 4, "bands": "0-30000000", "antenna": "dipole", "location": "Larvik, Norway"}, {"name": "Zuerich", "lat": 47.35818, "lon": 8.49391, "url": "http://80.218.128.11:8073", "users": 0, "users_max": 4, "bands": "0-30000000", "antenna": "Gainmaster1/2 T", "location": "Zuerich Friesenberg"}, {"name": "North Bridgend SDR 0-30MHz", "lat": 51.53534, "lon": -3.58385, "url": "http://gw0kax.proxy.kiwisdr.com", "users": 1, "users_max": 4, "bands": "0-30000000", "antenna": "40m Long Doublet", "location": "Sarn, Bridgend, South Wales"}, {"name": "0-30 MHz SDR | Sulz am Neckar, Deutschland", "lat": 48.36941, "lon": 8.65517, "url": "http://21624.proxy.kiwisdr.com", "users": 0, "users_max": 4, "bands": "0-30000000", "antenna": "Sirio Blizzard; Endfed 40m; Dummy Load", "location": "Sulz am Neckar, Deutschland"}, {"name": "NL12894 KiwiSDR Delfzijl Netherlands with PA0FRI shielded activeloop", "lat": 53.31867, "lon": 6.89637, "url": "http://21671.proxy.kiwisdr.com", "users": 0, "users_max": 4, "bands": "0-30000000", "antenna": "Loop Antenne", "location": "Delfzijl, Nederland"}, {"name": "Banana Port, SDR RX 0...30 MHz | Asikkala, Finland", "lat": 61.31502, "lon": 25.58626, "url": "http://21612.proxy.kiwisdr.com", "users": 3, "users_max": 3, "bands": "0-30000000", "antenna": "G5RV Multiband Dipole", "location": "Asikkala, Finland"}, {"name": "0-30 MHz SDR, Freemans Reach, Australia", "lat": -33.56085, "lon": 150.80535, "url": "http://mediaexplorer.ddns.net:8073", "users": 0, "users_max": 4, "bands": "0-30000000", "antenna": "Active Loop Antenna ALA1530S+ Imperium", "location": "Freemans Reach, Australia"}, {"name": "0-30 MHz SDR, G8OCV/M1GEO, Pulham Market, UK", "lat": 52.44132, "lon": 1.21423, "url": "http://norfolk.george-smart.co.uk:8073", "users": 4, "users_max": 4, "bands": "0-30000000", "antenna": "<a href", "location": "Pulham Market, Norfolk, UK"}, {"name": "ZTL e.V. HF SDR (0-30 MHz), GPA-50 vertical (80,20,15,10m) | Landau i.d. Pfalz, Germany", "lat": 49.19334, "lon": 8.12883, "url": "http://sdr.ztl.space:8073", "users": 1, "users_max": 2, "bands": "0-30000000", "antenna": "GPA-50 Vertical (80,20,15,10m)", "location": "Landau i.d. Pfalz, Germany"}, {"name": "13RF029📶📻0-30 MHz SDR📻📶 | Bülzig JO61jv", "lat": 51.89, "lon": 12.76, "url": "http://hnswerkstatt.dyndns.org:8073", "users": 0, "users_max": 4, "bands": "0-30000000", "antenna": "34,7m long wire 1:9 unun & 10m wire 1:49unun (Dir:208.85° N/S)", "location": "Bülzig JO61jv"}, {"name": "0-30 MHz KiwiSDR | DO6LSM | Borgwedel, Germany", "lat": 54.502, "lon": 9.6637, "url": "http://do6lsm.ddns.net:8074", "users": 0, "users_max": 3, "bands": "0-30000000", "antenna": "WellGood Loop V4.1", "location": "Borgwedel, Germany"}, {"name": "Bedford UK 0-30 MHz V1 KiwiSDR", "lat": 52.11975, "lon": -0.44649, "url": "http://remoteradio.changeip.org:8085", "users": 0, "users_max": 4, "bands": "0-30000000", "antenna": "Various, use Ant switch to choose antenna.", "location": "Bedford, England, UK"}, {"name": "0.5-30 MHz SDR, W4KEL, Free Union, Virginia, USA", "lat": 38.15015, "lon": -78.55421, "url": "http://21748.proxy.kiwisdr.com", "users": 4, "users_max": 4, "bands": "500000-30000000", "antenna": "27.4M T2FD abt 20M over ground", "location": "Free Union, VA, USA"}, {"name": "Barßel / Lower Saxony / Germany / 0-30 MHz SDR", "lat": 53.16872, "lon": 7.73761, "url": "http://barsselsdr.ddns.net:8073", "users": 2, "users_max": 4, "bands": "0-30000000", "antenna": "Diamond D3000-N / Discone Antenna", "location": "Barßel, Germany"}, {"name": "6-30 MHz SDR, Echofox, Tours, France", "lat": 47.41187, "lon": 0.6807, "url": "http://echofox.fr:8073", "users": 0, "users_max": 4, "bands": "6000000-30000000", "antenna": "G5RV de 40m à 10m", "location": "Tours, France"}, {"name": "Innherred SDR 0-30 MHz", "lat": 63.8, "lon": 11.3, "url": "http://innherred.proxy.kiwisdr.com", "users": 2, "users_max": 3, "bands": "0-30000000", "antenna": "MyAntennas.com EFHW-8010-LP", "location": "Innherred, Norway"}, {"name": "F4knp, RC MONTBELIARD, Doubs, France 0-30 MHz SDR", "lat": 47.45, "lon": 6.8, "url": "http://176.170.38.29:8073", "users": 0, "users_max": 8, "bands": "0-30000000", "antenna": "Verticale CP-6SR", "location": "Mandeure, Doubs, France"}, {"name": "OE9NGH | Langenegg Vorarlber Austria", "lat": 47.46, "lon": 9.91, "url": "http://21528.proxy.kiwisdr.com", "users": 0, "users_max": 4, "bands": "0-30000000", "antenna": "Diamond BB7V (vertical antenna)", "location": "Langenegg Vorarlber Austria"}, {"name": "KiwiSDR - 0-30 MHz | Gedern, Hessen, Germany", "lat": 50.40613, "lon": 9.19565, "url": "http://22372.proxy.kiwisdr.com", "users": 0, "users_max": 4, "bands": "0-30000000", "antenna": "40m λ/2 inverted vee dipole antenna", "location": "Gedern, Hessen, Germany"}, {"name": "DJ8KL 0-30 MHz SDR | Hannover, Germany", "lat": 52.46, "lon": 9.74, "url": "http://77.21.181.19:8073", "users": 0, "users_max": 3, "bands": "0-30000000", "antenna": "80m/40m dipole", "location": "Hannover, Germany"}, {"name": "RX Ahornalp LU, 1'140 asl 🇨🇭 @ HB9DSE, 1 - 30MHz", "lat": 47.05, "lon": 7.87, "url": "http://ahorn.proxy.kiwisdr.com", "users": 1, "users_max": 4, "bands": "0-30000000", "antenna": "Terminated Folded Dipole T2FD", "location": "Ahornalp LU, 1'140 asl, Switzerland"}, {"name": "DF4OR - Herxheim, KiwiSDR 0-30 MHz", "lat": 49.14233, "lon": 8.22233, "url": "http://df4or.ddns.net:8073", "users": 0, "users_max": 3, "bands": "9000-30000000", "antenna": "Wellbrook ALA-1530S", "location": "Herxheim Germany"}, {"name": "KiwiSDR with Dipole | Szekesfehervar, Hungary", "lat": 47.15173, "lon": 18.38973, "url": "http://kiwisdr.dfm.hu", "users": 3, "users_max": 8, "bands": "0-30000000", "antenna": "Dipole (54m/177ft long, 5m/16ft AGL) with 1:1 balun", "location": "Szekesfehervar/Maroshegy, Hungary"}, {"name": "0-30 MHz SDR, | Gahlkow near Greifswald, Germany", "lat": 54.55359, "lon": 13.59366, "url": "http://db0ovp.de:8073", "users": 1, "users_max": 4, "bands": "0-30000000", "antenna": "Mini-Whip", "location": "Gahlkow near Greifswald, Germany"}, {"name": "🇩🇪🇩🇪🇩🇪🇩🇪 Kiwi-SDR Neuwied-Hüllenberg - Rheinland-Pfalz - JO30 - Germany 🇩🇪🇩🇪🇩🇪🇩🇪", "lat": 50.45305, "lon": 7.41239, "url": "http://neuwied.proxy.kiwisdr.com", "users": 0, "users_max": 3, "bands": "0-30000000", "antenna": "Sirio Blizzard 2700 (Test)", "location": "Neuwied, Germany"}, {"name": "0-30 MHz SDR | Ihrhove, Germany", "lat": 53.17, "lon": 7.46, "url": "http://22857.proxy.kiwisdr.com", "users": 0, "users_max": 4, "bands": "0-30000000", "antenna": "Active Loop Antenna", "location": "Ihrhove, Germany"}, {"name": "OK1XOM Nemojov 0-30 MHz SDR", "lat": 50.4639, "lon": 15.75364, "url": "http://45.82.233.80:8073", "users": 0, "users_max": 2, "bands": "0-30000000", "antenna": "LW", "location": "Nemojov, Czech republic"}, {"name": "0-30 MHz Loop 95m , HB9EXC, Switzerland", "lat": 46.1351, "lon": 7.116, "url": "http://81.13.254.159:8073", "users": 0, "users_max": 4, "bands": "70000-30000000", "antenna": "Loop 65 m.", "location": "Fully VS, Switzerland"}, {"name": "JP7FSO,0-30 MHz SDR, Fukushima JAPAN", "lat": 37.66971, "lon": 140.49214, "url": "http://jp7fso-kiwisdr.sytes.net:8073", "users": 1, "users_max": 3, "bands": "0-30000000", "antenna": "G5RV", "location": "Matsukawa, Fukushima JAPAN"}, {"name": "Karelia MW DX | Joensuu, Finland", "lat": 62.5, "lon": 30.18, "url": "http://kareliamwdx.ddns.net:8074", "users": 0, "users_max": 4, "bands": "0-30000000", "antenna": "Beverage 850 m 95°", "location": "Joensuu, Finland"}, {"name": "0-30 MHz SDR | Luisenfelde, Germany", "lat": 52.97597, "lon": 13.91653, "url": "http://21692.proxy.kiwisdr.com", "users": 1, "users_max": 4, "bands": "0-30000000", "antenna": "MegaLoop FX 8m", "location": "Luisenfelde, Germany"}, {"name": "0-30 MHz SDR, DE1LON | Meerbusch, Germany", "lat": 51.14, "lon": 6.7, "url": "http://df1lon.synology.me:8073", "users": 2, "users_max": 4, "bands": "0-30000000", "antenna": "ALA-1530", "location": "Meerbusch, Germany"}, {"name": "1,80-30 MHz KiwiSDR-F6ABJ-France | Pommier de Beaurepaire (38)", "lat": 45.38403, "lon": 5.09346, "url": "http://f6abj-kiwihf.ddns.net:8073", "users": 1, "users_max": 4, "bands": "1800000-30000000", "antenna": "LZ1AQ active antenna", "location": "Pommier de Beaurepaire (38)"}, {"name": "Sapporo★Hokkaido★JAPAN★1.6-30MHz BCL,SWL", "lat": 43.05701, "lon": 141.49737, "url": "http://sdrsapporo.ddns.net:8073", "users": 0, "users_max": 3, "bands": "1600000-30000000", "antenna": "T2FD + KiwiSDR MW Filter (no-amp)", "location": "Sapporo,Hokkaido,JAPAN"}, {"name": "0-30 MHz SDR, KH6ILT, Elida OH USA", "lat": 40.77609, "lon": -84.20184, "url": "http://174.101.219.87:8073", "users": 1, "users_max": 4, "bands": "0-30000000", "antenna": "30-40-60M Dipole 50'", "location": "Elida Ohio USA"}, {"name": "CHOCO69 KIWI SDR SOLAR POWERED | Vérossaz Switzerland", "lat": 46.2134, "lon": 6.97923, "url": "http://178.237.95.113:8073", "users": 0, "users_max": 4, "bands": "0-300000000", "antenna": "40M Long Wire antenna", "location": "Vérossaz Switzerland"}, {"name": "RadioClub Los Charranes | Asturias", "lat": 43.55087, "lon": -5.71488, "url": "http://charranes.duckdns.org:8073", "users": 0, "users_max": 1, "bands": "0-30000000", "antenna": "Dipolo 40/80m", "location": "Asturias"}, {"name": "0-30 MHz SDR, DF3AF | Lippstadt -Bad Waldliesborn", "lat": 51.70543, "lon": 8.33627, "url": "http://df3af.ddns.net:8073", "users": 0, "users_max": 4, "bands": "0-30000000", "antenna": "Stampl Dipol 10-160 Meter", "location": "Lippstadt -Bad Waldliesborn"}, {"name": "0-30 MHz KiwiSDR • Bonito Megaloop FX • aprs.fi, Kuopio, Finland, Europe", "lat": 63.075, "lon": 27.275, "url": "http://kiwi-kuo.aprs.fi:8073", "users": 1, "users_max": 4, "bands": "0-30000000", "antenna": "Bonito Megaloop FX", "location": "Kuopio, Finland"}, {"name": "HB9VQQ, Wellgood copper tube Loop ø 1m | Hinwil,Switzerland", "lat": 47.30573, "lon": 8.84813, "url": "http://kiwi.hb9vqq.ch:8075", "users": 0, "users_max": 8, "bands": "0-30000000", "antenna": "Wellgood Loop - 22mm Copper tube Loop ø 1m", "location": "Hinwil,Switzerland"}, {"name": "0-30 MHz SDR, DQA647 | Moenchengladbach, Germany", "lat": 51.18, "lon": 6.47, "url": "http://kiwisdr-mg.dyndns.org:8073", "users": 1, "users_max": 4, "bands": "0-30000000", "antenna": "Wellbrook 1530LN", "location": "Moenchengladbach, Germany"}, {"name": "0-30 MHz SDR, PA1KE Den Bosch", "lat": 51.73, "lon": 5.3, "url": "http://88.159.31.251:8073", "users": 3, "users_max": 4, "bands": "0-30000000", "antenna": "Wellbrook ALN 1350", "location": "Den Bosch The Netherlands"}, {"name": "National Radio Quiet Zone SDR | Monterey, Virginia", "lat": 38.39151, "lon": -79.6244, "url": "http://phonic.proxy.kiwisdr.com", "users": 1, "users_max": 8, "bands": "0-30000000", "antenna": "EFHW", "location": "Monterey, Virginia"}, {"name": "Eagle 3, KiwiSDR2 in Kotka, Finland", "lat": 60.48683, "lon": 26.96021, "url": "http://eagle3.psokotka.com:8076", "users": 1, "users_max": 4, "bands": "0-30000000", "antenna": "10m long vertical with VE3PSZ Hi-Z Amplifier, 7MHz LPF", "location": "Kotka, Finland 🇫🇮"}, {"name": "G8GPO | ampthill", "lat": 52.00263, "lon": -0.49325, "url": "http://g8gporx.proxy.kiwisdr.com", "users": 0, "users_max": 4, "bands": "10000-30000000", "antenna": "loop", "location": "ampthill"}, {"name": "0-30 MHz SDR | Korschenbroich, Germany", "lat": 51.2, "lon": 6.51, "url": "http://kiwi.apps.exdsl.nl", "users": 0, "users_max": 4, "bands": "0-30000000", "antenna": "LZ1AQ Antenna, \\\"Lazy Loop\\\"", "location": "Korschenbroich, Germany"}, {"name": "Kiwi SDR in North Shropshire UK", "lat": 52.89, "lon": -2.64, "url": "http://82.71.90.132:8073", "users": 0, "users_max": 3, "bands": "0-30000000", "antenna": "Wellbrook large aperture loop", "location": "North Shropshire UK"}, {"name": "🟠VK3SOL-Strathbogie Rx2. Victoria, Australia [Hor. Loop 0.2-30MHz]🟠", "lat": -36.8526, "lon": 145.73842, "url": "http://22568.proxy.kiwisdr.com", "users": 0, "users_max": 4, "bands": "0-30000000", "antenna": "Horizontal loop. 42m per side, 11m high.", "location": "Strathbogie, Victoria, Australia"}, {"name": "0-30 MHz SDR | Chiba, Japan", "lat": 35.45, "lon": 140.06, "url": "http://22299.proxy.kiwisdr.com", "users": 0, "users_max": 4, "bands": "0-30000000", "antenna": "Magnetic Loop Antenna", "location": "Chiba, Japan"}, {"name": "OE5GEL 0-30 MHz SDR | Waldhausen im Strudengau", "lat": 48.23775, "lon": 14.95353, "url": "http://22630.proxy.kiwisdr.com", "users": 1, "users_max": 3, "bands": "0-30000000", "antenna": "Delta-Loop 130m oder HyEndFeed Monoband 40m, 10m Vertikal", "location": "Waldhausen im Strudengau"}, {"name": "0-30 MHz KIWI SDR RECIVER | OZ1KVB Soenderborg Denmark", "lat": 54.90338, "lon": 9.80632, "url": "http://86.52.211.220:8073", "users": 0, "users_max": 4, "bands": "2600000-30000000", "antenna": "Antenna WELLGOOD HOMEBREW . SMPS noise can occur And strong harmonics from my 136 khz tx", "location": "OZ1KVB Soenderborg Denmark"}, {"name": "0-30 MHz SDR 2 | St Just in Penwith, Cornwall, England", "lat": 50.12445, "lon": -5.68548, "url": "http://21247.proxy.kiwisdr.com", "users": 1, "users_max": 3, "bands": "0-30000000", "antenna": "20 metre N-S outdoor loop & matching transformer", "location": "St Just in Penwith, Cornwall, England"}, {"name": "0-30 MHz SDR, BM2KVV Taiwan #2", "lat": 25.11, "lon": 121.0, "url": "http://jplin53c.proxy.kiwisdr.com", "users": 8, "users_max": 8, "bands": "0-30000000", "antenna": "DP", "location": "Taiwan"}, {"name": "0-30 MHz SDR | Großkarolinenfeld, Germany", "lat": 47.88671, "lon": 12.08447, "url": "http://kiwisdr.dl0fhr.de:8080", "users": 0, "users_max": 4, "bands": "0-30000000", "antenna": "MLA Loop / 10m Long Wire", "location": "Großkarolinenfeld, Germany"}, {"name": "HB9HZW (0-30 MHz KiwiSDR-2) Valais - Switzerland", "lat": 46.27279, "lon": 7.39684, "url": "http://kiwisdr.hb9hzw.ch", "users": 0, "users_max": 3, "bands": "0-30000000", "antenna": "Fritzel FD-4 dipôle 80, 40, 20, 12, 10m", "location": "Ayent, Switzerland"}, {"name": "0-30 MHz SDR | Doha, Qatar", "lat": 25.2854, "lon": 51.531, "url": "http://midskiwi.ddns.net:8073", "users": 2, "users_max": 8, "bands": "0-30000000", "antenna": "MLA-30+ Loop Antenna,0.5-30MHz", "location": "Doha, Qatar"}, {"name": "- 0-30MHz HF SDR PLONSK- 161OS344 | 2.5m Active Loop copper pipe 4m/AGL | 🇵🇱 | POLAND", "lat": 52.61544, "lon": 20.35997, "url": "http://plonsk.proxy.kiwisdr.com", "users": 3, "users_max": 4, "bands": "130000-30000000", "antenna": "2.5m Active Loop copper pipe 4m/AGL", "location": "🇵🇱 | POLAND"}, {"name": "0-30 MHz SDR, LA3WAA, TRONDHEIM, NORWAY", "lat": 63.43167, "lon": 10.60633, "url": "http://178.164.123.136:8073", "users": 0, "users_max": 4, "bands": "0-30000000", "antenna": "LOOP ON THE GROUND", "location": "TRONDHEIM, Norway"}, {"name": "IG-AFU Telekom Bonn", "lat": 50.69, "lon": 7.14, "url": "http://dl0dtm.ddns.net:8073", "users": 0, "users_max": 3, "bands": "0-30000000", "antenna": "", "location": "Bonn, Germany"}, {"name": "Grenland | Skien, Norway", "lat": 59.19093, "lon": 9.71515, "url": "http://lb1pj-kiwisdr.hopto.org:8073", "users": 1, "users_max": 1, "bands": "0-30000000", "antenna": "45m Randomwire with 9:1 Unun", "location": "Skien, Norway"}, {"name": "0-30 MHz SDR, PHONEMA SPEAKERS | Rajadell, Catalonia", "lat": 41.71705, "lon": 1.73656, "url": "http://phonemarx.tplinkdns.com:8072", "users": 5, "users_max": 8, "bands": "1700000-30000000", "antenna": "MLA-30 loop upgraded", "location": "Rajadell, Catalonia"}, {"name": "Lake Wettern DX Group - SK6WW Karlsborg | Sweden", "lat": 58.54, "lon": 14.44, "url": "http://sk5sm-at-sk6ww.proxy.kiwisdr.com", "users": 1, "users_max": 4, "bands": "0-30000000", "antenna": "80 / 40 m dipole", "location": "Sweden"}, {"name": "VK4GFR | 0-30MHz SDR | Townsville, Queensland", "lat": -19.39813, "lon": 146.70822, "url": "http://21982.proxy.kiwisdr.com", "users": 0, "users_max": 4, "bands": "0-30000000", "antenna": "49:1 41.2m End Fed Wire", "location": "Townsville, Queensland"}, {"name": "Eckrot's Kiwi II, 0-30 MHz SDR, Thuringia, Germany", "lat": 50.93, "lon": 11.68, "url": "http://erserver.ddns.net:8073", "users": 0, "users_max": 4, "bands": "0-30000000", "antenna": "Antenna Switch", "location": "Grossloebichau, GERMANY"}, {"name": "0-30 MHz SDR | Merthyr Tydfil, South Wales, UK", "lat": 51.73, "lon": -3.37, "url": "http://gw0kig.ddns.net:8073", "users": 0, "users_max": 4, "bands": "0-30000000", "antenna": "Wellbrook loop", "location": "Merthyr Tydfil, South Wales, UK"}, {"name": "EI0CF Finbar O'Connor | Malin, County Donegal, Ireland", "lat": 55.28984, "lon": -7.26248, "url": "http://malinheadkiwi.hopto.org:8073", "users": 0, "users_max": 4, "bands": "0-30000000", "antenna": "L antenna with two paralell 44m top hat wires between two 20m masts. Resonated on 474kHz with a very solid groundplane.", "location": "Malin, County Donegal, Ireland"}, {"name": "0-32 MHz SDR, S5/S57BIT, Slovenia", "lat": 46.17, "lon": 14.3, "url": "http://s57bit.proxy.kiwisdr.com", "users": 1, "users_max": 2, "bands": "0-32000000", "antenna": "End Fed", "location": "Skofja Loka, Slovenia"}, {"name": "0-30 MHz SDR(Redirect to the next receiver when full.) | Oita,Japan", "lat": 33.5549, "lon": 131.3159, "url": "http://kiwi.web-sdr.net", "users": 2, "users_max": 3, "bands": "0-30000000", "antenna": "self-made YouLoop + LAMB-1B", "location": "Oita,Japan"}, {"name": "0-30 MHz SDR | Rotterdam, Netherlands", "lat": 51.96, "lon": 4.46, "url": "http://21092.proxy.kiwisdr.com", "users": 1, "users_max": 4, "bands": "50000-30000000", "antenna": "Active Antenna", "location": "Rotterdam, Netherlands"}, {"name": "0-30 MHz SDR | DL3ZID Schwerin", "lat": 53.599, "lon": 11.329, "url": "http://84.141.160.117:8073", "users": 0, "users_max": 4, "bands": "0-30000000", "antenna": "E-Field", "location": "DL3ZID Schwerin"}, {"name": "0-30 MHz SDR | HB9ODP | Ticino, South Switzerland, 1600m, near Gotthard Pass | 160m triangle loop antenna H~12m", "lat": 46.49935, "lon": 8.79883, "url": "http://hb9odp.proxy.kiwisdr.com", "users": 1, "users_max": 8, "bands": "0-30000000", "antenna": "160m wire loop, 20m ladder 450ohm, balun 4:1 <font color", "location": "Near Carì, Switzerland"}, {"name": "LA6LU KiwiSDR - Cha-Am, Thailand (0-30 MHz SDR)", "lat": 12.79, "lon": 99.97, "url": "http://la6lukiwisdrth.ddns.net:8073", "users": 5, "users_max": 8, "bands": "0-30000000", "antenna": "NTi MegActiv MA305FT Active Wideband Antenna", "location": "Cha-Am, Thailand"}, {"name": "🟠VK3SOL-Strathbogie Rx1. Victoria, Australia [Vert. Loop. 0.2-30MHz]🟠", "lat": -36.8526, "lon": 145.73842, "url": "http://22545.proxy.kiwisdr.com", "users": 0, "users_max": 4, "bands": "0-30000000", "antenna": "Vertical Loop", "location": "Strathbogie, Victoria, Australia"}, {"name": "DO4GME | Winzeln", "lat": 48.28614, "lon": 8.48411, "url": "http://80.146.26.60:8073", "users": 0, "users_max": 4, "bands": "0-30000000", "antenna": "COMTEX BB-8V Groundplane (5,4m Vertikal)", "location": "Winzeln"}, {"name": "Funkclub Schlössli - HB9RE - DMR2282157 | Bodenberg, Switzerland", "lat": 47.15413, "lon": 7.92317, "url": "http://hb9re.ddns.net:8081", "users": 0, "users_max": 4, "bands": "0-30000000", "antenna": "Active Loop MLA 30+", "location": "Bodenberg, Switzerland"}, {"name": "Radioclub s59gcd | Malic, Slovenia", "lat": 46.18306, "lon": 15.20833, "url": "http://188.159.246.61:8073", "users": 1, "users_max": 4, "bands": "0-30000000", "antenna": "Long wire", "location": "Malic, Slovenia"}, {"name": "Dokkum Friesland NL", "lat": 53.28, "lon": 6.09, "url": "http://212.52.246.172:8073", "users": 0, "users_max": 8, "bands": "0-30000000", "antenna": "MFJ 1886 loop or out250B Vertical.", "location": "Dokkum, the Netherlands"}, {"name": "0-30 MHz Kiwi 2 SDR, Token, Mojave Desert", "lat": 35.6, "lon": -117.8, "url": "http://21214.proxy.kiwisdr.com", "users": 0, "users_max": 3, "bands": "0-30000000", "antenna": "Multiband Fan Dipole or Wellbrook Loop", "location": "Mojave Desert, California, USA"}, {"name": "0-30 MHZ 🇩🇪 🇩🇪 SWLJO53DK 🇩🇪 🇩🇪 Voßmoor OT von Escheburg 🇩🇪 🇩🇪 Germany | Vossmoor", "lat": 53.45069, "lon": 10.30995, "url": "http://21951.proxy.kiwisdr.com", "users": 0, "users_max": 1, "bands": "0-30000000", "antenna": "♦︎ AOR SA-7000 ♦︎", "location": "Vossmoor"}, {"name": "0-30 MHz SDR | Bad Blankenburg, Germany", "lat": 50.67, "lon": 11.27, "url": "http://21961.proxy.kiwisdr.com", "users": 0, "users_max": 4, "bands": "1000-30000000", "antenna": "LMK antenna passiv Funkbau", "location": "Bad Blankenburg, Germany"}, {"name": "0-30 MHz SDR | Ross-On-Wye, England", "lat": 51.91083, "lon": -2.51023, "url": "http://gibsons.dyndns.org:8073", "users": 2, "users_max": 3, "bands": "100000-30000000", "antenna": "EFHW 80M or SteppIR Vertical", "location": "Ross-On-Wye, England"}, {"name": "DL2TT | Essen, Germany", "lat": 51.47, "lon": 6.93, "url": "http://t.ben2.de:8073", "users": 3, "users_max": 4, "bands": "0-30000000", "antenna": "EFHW 41m Long / Endfeed Antenna", "location": "Essen, Germany"}, {"name": "0-30 MHz SDR - DL0RCW - S46 | Crimmitschau, Germany", "lat": 50.79, "lon": 12.27, "url": "http://22432.proxy.kiwisdr.com", "users": 0, "users_max": 4, "bands": "0-30000000", "antenna": "Aktiv (AS643-AATIS)", "location": "Crimmitschau, Germany"}, {"name": "KiwiSDRs ESPAÑA BARCELONA SPAIN EA3ER 0-30 MHz", "lat": 41.52565, "lon": 1.575, "url": "http://22626.proxy.kiwisdr.com", "users": 1, "users_max": 4, "bands": "0-30000000", "antenna": "Mini-Whip", "location": "La Torre de Claramunt, Barcelona, España"}, {"name": "0-30 MHz SDR VK2XLY E25ZWJ | Khon Kaen THAILAND", "lat": 16.64, "lon": 102.37, "url": "http://22848.proxy.kiwisdr.com", "users": 0, "users_max": 4, "bands": "1000-30000000", "antenna": "Diamond WD330 25 Metres Long Broadband Wire 2-30Mhz", "location": "Khon Kaen THAILAND"}, {"name": "0-30 MHz SDR | Albertirsa, Hungary", "lat": 47.24003, "lon": 19.61111, "url": "http://kiwiradio.ddns.net", "users": 0, "users_max": 4, "bands": "0-30000000", "antenna": "Long wire antenna", "location": "Albertirsa, Hungary"}, {"name": "0-30 MHz SDR, EA2AT | Mojacar Playa, Spain", "lat": 37.13241, "lon": -1.83475, "url": "http://kiwisdrmojacar.ham-radio-op.net:8073", "users": 1, "users_max": 4, "bands": "10000-30000000", "antenna": "Antena activa Loop MLA30+ (0,5 - 30 MHz).", "location": "Mojacar Playa, Spain"}, {"name": "0-30 MHz SDR#1, LA2G, Norway", "lat": 60.14741, "lon": 11.14604, "url": "http://la2g.ddns.net:8072", "users": 0, "users_max": 4, "bands": "0-30000000", "antenna": "Bonito MegaLoop FX", "location": "Jessheim, Norway"}, {"name": "0-30 MHz SDR, Rotterdam, The Netherlands. Kilrock, Atlantica and MCB Radio control receiver [NO WSPR ALLOWED]", "lat": 51.88198, "lon": 4.54256, "url": "http://77.173.58.48:8073", "users": 1, "users_max": 3, "bands": "0-30000000", "antenna": "PA0RDT Mini Whip. Top height is 10 meters above the ground.", "location": "Rotterdam, The Netherlands"}, {"name": "0-30 MHz SDR | Dortmund, Germany", "lat": 51.55633, "lon": 7.38328, "url": "http://da1vid.ipv64.net:8073", "users": 4, "users_max": 4, "bands": "0-30000000", "antenna": "60m Wire + Sirio Boomerang + 11m λ/2 Vertical combined", "location": "Dortmund, Germany"}, {"name": "0-30 MHz SDR | Maranup, Western Australia", "lat": -33.93, "lon": 116.04, "url": "http://22332.proxy.kiwisdr.com", "users": 2, "users_max": 2, "bands": "0-30000000", "antenna": "5.6m vertical whip", "location": "Maranup, Western Australia"}, {"name": "0-30 MHz KiwiSDR,Julussdalen#2, Elverum - Norway", "lat": 61.03764, "lon": 11.68917, "url": "http://julussdalen2.proxy.kiwisdr.com", "users": 1, "users_max": 3, "bands": "0-30000000", "antenna": "Wellbrook ALA1530LNP 227° / 47° (Uk-S.AM / Japan-NZ)", "location": "Elverum, Norway"}, {"name": "0-30 MHz SDR, DL6NEP | Northern Bavaria, Germany", "lat": 50.16755, "lon": 11.11678, "url": "http://dl6nep.proxy.kiwisdr.com", "users": 0, "users_max": 4, "bands": "0-30000000", "antenna": "Diamond Groundplane", "location": "Northern Bavaria, Germany"}, {"name": "F1UBL - JN08 near Paris - Yvelines - France - 0-30 MHz SDR", "lat": 48.77, "lon": 1.94, "url": "http://f1ubl.ddns.net:8072", "users": 4, "users_max": 4, "bands": "0-30000000", "antenna": "MLA 30+ Loop", "location": "Maurepas, France"}, {"name": "🌲46º North #1 ~ K9DXI, Presque Isle, Wisconsin | USA🌲", "lat": 46.22995, "lon": -89.59536, "url": "http://k9dxikiwi.proxy.kiwisdr.com", "users": 3, "users_max": 4, "bands": "0-30000000", "antenna": "85 Meter Loop > 500 - 1500 kHz Filter > MCA104M Split", "location": "Presque Isle, WI USA"}, {"name": "0.05-30 MHz SDR, DB1UJ, Paderborn University, Germany", "lat": 51.7091, "lon": 8.76873, "url": "http://ntkiwi.uni-paderborn.de:8073", "users": 7, "users_max": 8, "bands": "50000-30000000", "antenna": "Small active loop 1m diameter, LX1AQ style amp", "location": "Paderborn, Germany"}, {"name": "0-30 MHz SDR | Ecublens-FR, Switzerland", "lat": 46.609, "lon": 6.8115, "url": "http://21625.proxy.kiwisdr.com", "users": 0, "users_max": 4, "bands": "0-30000000", "antenna": "Long Wire", "location": "Ecublens-FR, Switzerland"}, {"name": "0-30 MHz KIWI SDR2 | Near Vinhedo SP - Brazil", "lat": -23.03, "lon": -46.99, "url": "http://22235.proxy.kiwisdr.com", "users": 3, "users_max": 4, "bands": "0-30000000", "antenna": "T3FD @20m agl", "location": "Near Vinhedo SP - Brazil"}, {"name": "Eckrot's Kiwi II, 0-30 MHz SDR, Thuringia, Germany", "lat": 50.93, "lon": 11.68, "url": "http://erserver.ddns.net:8074", "users": 0, "users_max": 4, "bands": "0-30000000", "antenna": "Antenna Switch", "location": "Grossloebichau, GERMANY"}, {"name": "KiwiSDR 2 @ DO1MF/DE2MFF | Walsrode, Germany", "lat": 52.90147, "lon": 9.66216, "url": "http://21646.proxy.kiwisdr.com", "users": 0, "users_max": 4, "bands": "0-32000000", "antenna": "Wellbrook ALA–1530S 4m high", "location": "Walsrode, Germany"}, {"name": "0-30 MHz KIWI SDR, 1HS1322 .Cagliari Italy", "lat": 39.22405, "lon": 9.13396, "url": "http://sergiocorda.synology.me:28073", "users": 0, "users_max": 4, "bands": "0-30000000", "antenna": "Fully Balanced Mini Whip Active antenna (dipole) by Mr. Hajo Lochny", "location": "Cagliari, Italy"}, {"name": "0-30 MHz SDR | Willesden, London", "lat": 51.54472, "lon": -0.23684, "url": "http://21145.proxy.kiwisdr.com", "users": 2, "users_max": 4, "bands": "0-30000000", "antenna": "Boni-Whip", "location": "Willesden, London"}, {"name": "VE6JY | Lamont, ALberta", "lat": 53.74, "lon": -112.83, "url": "http://ciw321.cfars.ca:8174", "users": 3, "users_max": 8, "bands": "10000-30000000", "antenna": "Wellbrook ALA100n 250' loop, horizontal at 30' high (.5 to 1.7 mhz sensitivity reduced)", "location": "Lamont, ALberta"}, {"name": "0-30 MHz SDR | Fordham, Cambridgeshire, UK", "lat": 52.30969, "lon": 0.38039, "url": "http://fordham.george-smart.co.uk:8073", "users": 4, "users_max": 4, "bands": "0-30000000", "antenna": "Wellgood Loop V4.1 <a href", "location": "Fordham, Cambridgeshire, UK"}, {"name": "MSARS HF KiwiSDR Burgess Hill, West Sussex, UK", "lat": 50.95655, "lon": -0.12917, "url": "http://msars.ddns.net:8073", "users": 2, "users_max": 4, "bands": "0-30000000", "antenna": "Wellbrook Loop ALA1530AL", "location": "Burgess Hill, West Sussex, UK"}, {"name": "0-30 MHz SDR Vk6qs | Augusta, Western Australia", "lat": -34.3, "lon": 115.14, "url": "http://vk6qs2.proxy.kiwisdr.com", "users": 3, "users_max": 4, "bands": "0-30000000", "antenna": "Horizontal loop", "location": "Augusta, Western Australia"}, {"name": "0-30 MHz SDR | Dover", "lat": 51.1565, "lon": 1.28888, "url": "http://176.26.93.169:8073", "users": 0, "users_max": 4, "bands": "0-30000000", "antenna": "wellbrook ala100ln via 15db attenuator.", "location": "Dover"}, {"name": "15 kHz-30 MHz KiwiSDR2 - F1JEK/P - France - DX-500 active antenna.", "lat": 45.79, "lon": 0.65, "url": "http://f1jeksdr1.ddns.net:8073", "users": 1, "users_max": 4, "bands": "15000-30000000", "antenna": "DX-500 active", "location": "Massignac, France"}, {"name": "######ZL2J 0-30 MHz SDR antenna 400m Doublet \\\"NEW ANTENNA\\\"#####", "lat": -40.9455, "lon": 175.57251, "url": "http://zl2j.proxy.kiwisdr.com", "users": 3, "users_max": 8, "bands": "0-30000000", "antenna": "400m doublet", "location": "Carterton, New Zealand"}, {"name": "LU1HCW-LW1HJP | ALPA CORRAL ARGENTINA", "lat": -32.66, "lon": -64.76, "url": "http://190.123.83.42:8073", "users": 2, "users_max": 2, "bands": "0-30000000", "antenna": "DIPOLO-20 40", "location": "ALPA CORRAL ARGENTINA"}, {"name": "0-30 MHz SDR | HS0ZGZ, Udon Thani, Thailand 🇹🇭", "lat": 16.972, "lon": 103.262, "url": "http://21023.proxy.kiwisdr.com", "users": 0, "users_max": 4, "bands": "0-30000000", "antenna": "1m diameter loop with Cross Country loop amplifier", "location": "HS0ZGZ, Udon Thani, Thailand 🇹🇭"}, {"name": "VK6BL Vk6HL HF | Mt Barker, Western Australia", "lat": -34.62096, "lon": 117.57911, "url": "http://22378.proxy.kiwisdr.com", "users": 3, "users_max": 4, "bands": "0-30000000", "antenna": "19 metre end fed 9:1 unun with 50 turn coil", "location": "Mt Barker, Western Australia"}, {"name": "20 kHz - 30 MHz Roelof Bakker , pa0rdt [ACTIVE!] | Middelburg, Netherlands", "lat": 51.5005, "lon": 3.60069, "url": "http://62.45.55.124:8073", "users": 6, "users_max": 8, "bands": "10000-30000000", "antenna": "pa0rdt-Mini-Whip© 5 meter up in a hawthorn tree", "location": "Middelburg, Netherlands"}, {"name": "ZL2P #3 | Masterton, New Zealand", "lat": -40.92074, "lon": 175.59144, "url": "http://zl2p-3.proxy.kiwisdr.com", "users": 2, "users_max": 4, "bands": "0-30000000", "antenna": "W5GI multiband doublet", "location": "Masterton, New Zealand"}, {"name": "0-30 MHz SDR | Flores island,Azores,Portugal", "lat": 39.44499, "lon": -31.16423, "url": "http://22561.proxy.kiwisdr.com", "users": 1, "users_max": 3, "bands": "0-30000000", "antenna": "LZ1AQ MAG LOOP DAYS /TUNED LOOP 630M FROM 2200 TO 0730 UTC", "location": "Flores island,Azores,Portugal"}, {"name": "0-30 MHz SDR | Nailsea, Bristol", "lat": 51.42165, "lon": -2.75367, "url": "http://g4ahg.ddns.net:8073", "users": 2, "users_max": 8, "bands": "0-30000000", "antenna": "Fan Dipole for 40m/20m", "location": "Nailsea, Bristol"}, {"name": "110-142MHz AirBand KiwiSDR | SWITZERLAND Hasenberg04 AG 700m / Antenna: VHF Omni", "lat": 47.37836, "lon": 8.36453, "url": "http://hasenberg04.proxy.kiwisdr.com", "users": 0, "users_max": 4, "bands": "110000000-142000000", "antenna": "VHF Omni Antenna", "location": "SWITZERLAND Hasenberg04 AG 700m JN47EJ"}, {"name": "NW7R - KiwiSDR 2 | West Seattle, WA USA", "lat": 47.56, "lon": -122.39, "url": "http://21088.proxy.kiwisdr.com", "users": 0, "users_max": 4, "bands": "0-30000000", "antenna": "DX Engineering RF-Pro-1B loop antenna - Oriented NW-SE", "location": "West Seattle, WA USA"}, {"name": "IV3HZR-Bayer(Iztok) MUGGIA(TRIESTE)Antenna:Tagra BT-101 Ballerina", "lat": 45.61, "lon": 13.74, "url": "http://21699.proxy.kiwisdr.com", "users": 0, "users_max": 4, "bands": "0-30000000", "antenna": "Antenna:Tagra BT-101 Ballerina", "location": "Muggia (TRIESTE)"}, {"name": "0,5-30 MHz SDR, Bad Münstereifel", "lat": 50.61205, "lon": 6.82218, "url": "http://5.10.166.25:8073", "users": 0, "users_max": 4, "bands": "500000-30000000", "antenna": "MLA 30", "location": "Eifel, Germany"}, {"name": "Central Czechia SDR", "lat": 49.91161, "lon": 14.22891, "url": "http://centralczechia.proxy.kiwisdr.com", "users": 5, "users_max": 8, "bands": "0-30000000", "antenna": "MLA-30+", "location": "Řevnice, Czechia"}, {"name": "ZL2BA Located in Masterton, New Zealand 0-30Mhz SDR", "lat": -40.95, "lon": 175.68, "url": "http://zl2ba.proxy.kiwisdr.com", "users": 0, "users_max": 4, "bands": "0-30000000", "antenna": "Broadband Flat Top", "location": "Masterton, New Zealand"}, {"name": "🌲46º North #2 ~ K9DXI, Presque Isle, Wisconsin | USA🌲", "lat": 46.22995, "lon": -89.59536, "url": "http://21042.proxy.kiwisdr.com", "users": 1, "users_max": 3, "bands": "0-30000000", "antenna": "85 Meter Loop > 500 - 1500 kHz Filter > MCA104M Split", "location": "Presque Isle, WI USA"}, {"name": "SDR Groesbeek by PA1W/p", "lat": 51.78779, "lon": 5.93687, "url": "http://31.187.213.145:8073", "users": 4, "users_max": 8, "bands": "10000-30000000", "antenna": "Loop design by PA0IB (sk)", "location": "Groesbeek"}, {"name": "KiwiSDR#2 from DO9HM | Seybothenreuth, Bavaria-Germany", "lat": 49.89776, "lon": 11.70449, "url": "http://do9hm.proxy.kiwisdr.com", "users": 0, "users_max": 4, "bands": "0-32000000", "antenna": "Long-wire", "location": "Seybothenreuth, Bavaria-Germany"}, {"name": "ON0NR (AGRAN) 0.01-30 MHz SDR | Namur-Wepion", "lat": 50.47704, "lon": 4.87789, "url": "http://on0nr-sdr.ddns.net:8073", "users": 1, "users_max": 3, "bands": "10000-30000000", "antenna": "WELLBROOK ALA1530LN Active Magnetic Loop", "location": "Namur-Wepion"}, {"name": "WD9EYT 10Khz-30 Mhz KiwiSDR | Godfrey, IL USA", "lat": 38.98, "lon": -90.17, "url": "http://21763.proxy.kiwisdr.com", "users": 0, "users_max": 4, "bands": "10000-30000000", "antenna": "PA0RDT Mini-Whip", "location": "Godfrey, IL USA"}, {"name": "OM5AKC, Marian Nemčič, 0-30 MHz SDR | Nitra", "lat": 48.3282, "lon": 18.09934, "url": "http://62.197.223.84:8073", "users": 0, "users_max": 4, "bands": "0-30000000", "antenna": "LW", "location": "Nitra"}, {"name": "Milano Sdr", "lat": 45.48042, "lon": 9.18618, "url": "http://milano1602.dyndns.org:8073", "users": 1, "users_max": 4, "bands": "0-30000000", "antenna": "Ala1530", "location": "Milano, Italy"}, {"name": "HB9VIV - KiwiSDR V2 | Servion, Switzerland", "lat": 46.57313, "lon": 6.77419, "url": "http://hb9viv.proxy.kiwisdr.com", "users": 0, "users_max": 2, "bands": "0-30000000", "antenna": "magnetic loop", "location": "Servion, Switzerland"}, {"name": "0-30 MHz SDR, France (Belgium border)", "lat": 50.59691, "lon": 3.08203, "url": "http://sdr.mimosys.net:8074", "users": 0, "users_max": 4, "bands": "0-30000000", "antenna": "Wellbrook Loop in the attic", "location": "Lille, France"}, {"name": "IZ2442SWL 0.0-30.0 MHz SDR | Capiago Intimiano, Como, Italy", "lat": 45.77, "lon": 9.13, "url": "http://vpncap.dyndns.org:8073", "users": 0, "users_max": 2, "bands": "0-30000000", "antenna": "Wellbrook ALA1530LNP", "location": "Capiago Intimiano, Como, Italy"}, {"name": "VE6JY | Lamont, ALberta", "lat": 53.74, "lon": -112.83, "url": "http://ciw321.cfars.ca:8173", "users": 0, "users_max": 4, "bands": "10000-30000000", "antenna": "Wellbrook ALA100n 250' loop, horizontal at 30' high (.5 to 1.7 mhz sensitivity reduced)", "location": "Lamont, ALberta"}, {"name": "Northern Utah Kiwisdr #2 (0-30 MHz, TCI-530 Omni)", "lat": 41.59, "lon": -112.27, "url": "http://kiwisdr2.sdrutah.org:8074", "users": 7, "users_max": 8, "bands": "0-30000000", "antenna": "TCI 530 Omni Log Periodic", "location": "near Corinne, Utah"}, {"name": "Northern Utah Kiwisdr #1 (0-30 MHz, TCI-530 Omni)", "lat": 41.59, "lon": -112.27, "url": "http://166.70.44.45:8073", "users": 7, "users_max": 8, "bands": "0-30000000", "antenna": "TCI 530 Omni Log Periodic", "location": "near Corinne, Utah"}, {"name": "Northern Utah Kiwisdr #1 (0-30 MHz, TCI-530 Omni)", "lat": 41.59, "lon": -112.27, "url": "http://kiwisdr1.sdrutah.org:8073", "users": 7, "users_max": 8, "bands": "0-30000000", "antenna": "TCI 530 Omni Log Periodic", "location": "near Corinne, Utah"}, {"name": "ZL2P #9 Masterton New Zealand", "lat": -40.92094, "lon": 175.5907, "url": "http://zl2p-9.proxy.kiwisdr.com", "users": 3, "users_max": 8, "bands": "0-30000000", "antenna": "W5GI multiband doublet", "location": "ZL2P, Masterton, New Zealand"}, {"name": "0-32 MHz KiwiSDR, PE1NOD. | High Tech Campus Eindhoven, The Netherlands.", "lat": 51.41316, "lon": 5.45947, "url": "http://83.247.88.41:8073", "users": 0, "users_max": 4, "bands": "0-32000000", "antenna": "Active Rod Antenna", "location": "High Tech Campus Eindhoven, The Netherlands."}, {"name": "10 kHz - 30 MHz SDR receiver - KiwiSDR 2 (2024) | LA3CO - Sandefjord, NORWAY", "lat": 59.15, "lon": 10.22, "url": "http://21702.proxy.kiwisdr.com", "users": 0, "users_max": 3, "bands": "10000-30000000", "antenna": "Beverage is offline. Temporarily using 80 cm diameter indoor loop antenna. Coverage: 7,0 to 7,1 MHz. EAST-WEST. Common mode and RF isolation systems. Linear power supply, heavily RFI filtered.", "location": "LA3CO - Sandefjord, NORWAY"}, {"name": "DF2SI 0-30 MHz SDR | Fürstenfeldbruck, Germany", "lat": 48.17321, "lon": 11.23593, "url": "http://21897.proxy.kiwisdr.com", "users": 1, "users_max": 4, "bands": "0-30000000", "antenna": "10m multiband vertical", "location": "Fürstenfeldbruck, Germany"}, {"name": "WA7CCA 160-10M NE AZ", "lat": 34.39, "lon": -109.71, "url": "http://azwhtmtns.proxy.kiwisdr.com", "users": 0, "users_max": 4, "bands": "1800000-30000000", "antenna": "Various", "location": "Concho, AZ"}, {"name": "0-30 MHz SDR | Etten-Leur, Netherlands", "lat": 51.5755, "lon": 4.645, "url": "http://217.62.76.203:8073", "users": 1, "users_max": 8, "bands": "0-30000000", "antenna": "MLA 30+ Mag loop", "location": "Etten-Leur, Netherlands"}, {"name": "0-30 MHz SDR | New Zealand, Auckland", "lat": -36.77677, "lon": 174.60437, "url": "http://22337.proxy.kiwisdr.com", "users": 0, "users_max": 3, "bands": "0-30000000", "antenna": "80/40 Fan Dipole", "location": "New Zealand, Auckland"}, {"name": "0-30 MHz SDR Radio Station at Minowa, Kamiinagun, Nagano, JAPAN", "lat": 35.91496, "lon": 137.98228, "url": "http://ja0veu.hopto.org:8073", "users": 1, "users_max": 3, "bands": "0-30000000", "antenna": "10mH, whip antenna", "location": "Nagano, Japan"}, {"name": "0-30 MHz SDR, Balingen, Germany", "lat": 48.255, "lon": 8.83, "url": "http://sdr.sixvpn.net", "users": 1, "users_max": 4, "bands": "0-30000000", "antenna": "Indoor Active Loops", "location": "Balingen, Germany"}, {"name": "0-30 MHz SDR | Tywyn, West Wales, UK", "lat": 52.58, "lon": -4.09, "url": "http://80.229.150.25:8073", "users": 5, "users_max": 8, "bands": "0-30000000", "antenna": "Wellbrook Loop", "location": "Tywyn, West Wales, UK"}, {"name": "0-30 MHz SDR | K8BMZ | Traverse City, MI", "lat": 44.72875, "lon": -85.50918, "url": "http://kiwi.k8bmz.net:8073", "users": 3, "users_max": 4, "bands": "0-30000000", "antenna": "DAMAGED IN WIND! ZS6BKW Inverted V - 45' AGL Apex - AM broadcast notch (ANT-> IC-7300 -> PTRX -> Kiwi)", "location": "Traverse City, MI"}, {"name": "0-30 MHz SDR, M7GMG | Manchester, UK", "lat": 53.43, "lon": -2.18, "url": "http://radio.satelliteboy.com:8073", "users": 2, "users_max": 2, "bands": "0-30000000", "antenna": "Wellbrook Loop", "location": "Manchester, UK"}, {"name": "RHA Raisio SDR, Finland", "lat": 60.47622, "lon": 22.13615, "url": "http://rhakiwi.ddns.net:8074", "users": 3, "users_max": 4, "bands": "0-30000000", "antenna": "48 or 76 mb folded dipole", "location": "Raisio Finland"}, {"name": "0-30 MHz SDR | Waldheim, Germany", "lat": 51.06765, "lon": 13.0171, "url": "http://swl-prh.proxy.kiwisdr.com", "users": 0, "users_max": 4, "bands": "0-30000000", "antenna": "ML200", "location": "Waldheim, Germany"}, {"name": "0-30 MHz SDR | Barossa Valley | Angaston, South Australia", "lat": -34.50029, "lon": 139.04701, "url": "http://barossa.servebeer.com:8073", "users": 0, "users_max": 3, "bands": "0-30000000", "antenna": "40m Delta Loop", "location": "Angaston, South Australia"}, {"name": "0-30 MHz SDR | Rottweil, Baden - Württemberg, Germany", "lat": 48.23182, "lon": 8.664, "url": "http://db3th.proxy.kiwisdr.com", "users": 0, "users_max": 4, "bands": "0-30000000", "antenna": "Gap Titan DX & Sirio GPA 27", "location": "Rottweil, Baden - Württemberg, Germany"}, {"name": "Kiwi 2 DB0SLF (www.x26.de) | Saalfeld/Saale", "lat": 50.65, "lon": 11.31, "url": "http://kiwi.x26.de", "users": 0, "users_max": 4, "bands": "0-30000000", "antenna": "LMK Vertikal from HM Funkbau", "location": "Saalfeld/Saale"}, {"name": "K1VL - Shrewsbury, Vermont, USA - 36+ receivers", "lat": 43.5077, "lon": -72.8168, "url": "http://sdr.k1vl.com:8073", "users": 1, "users_max": 4, "bands": "10000-30000000", "antenna": "82m (270ft) center fed doublet @ 20m (65ft) MF through HF", "location": "Shrewsbury, Vermont, USA"}, {"name": "Kiwi SDR South Wales, UK | Merthyr Tydfil location 2", "lat": 51.74, "lon": -3.4, "url": "http://shack2.ddns.net:8073", "users": 2, "users_max": 4, "bands": "0-30000000", "antenna": "Wellbrook Loop", "location": "Merthyr Tydfil location 2"}, {"name": "🟢⚪️🔴I0080PR Radio Station🟢⚪️🔴Parma Nord ITALY🟢⚪️🔴", "lat": 44.81, "lon": 10.27, "url": "http://21882.proxy.kiwisdr.com", "users": 4, "users_max": 4, "bands": "0-30000000", "antenna": "📡Loop Magnetic NMF📡- Dir⬆️Nord / Sud⬇️", "location": "🟢⚪️🔴Parma Nord ITALY🟢⚪️🔴"}, {"name": "0-30 MHz SDR | Jersey United Kingdom", "lat": 49.21584, "lon": -2.19039, "url": "http://antskiwisdr.zapto.org:8077", "users": 0, "users_max": 2, "bands": "0-30000000", "antenna": "Mini Magnet Loop1", "location": "Jersey United Kingdom"}, {"name": "0-30 MHz SDR | Cyprus", "lat": 34.76, "lon": 32.53, "url": "http://cyp.twrmon.net:8073", "users": 2, "users_max": 7, "bands": "0-30000000", "antenna": "Magnetic Loop Antenna", "location": "Cyprus"}, {"name": "Lake Chelan LCARC McNiel", "lat": 47.85, "lon": -119.88, "url": "http://k7abj.proxy.kiwisdr.com", "users": 0, "users_max": 4, "bands": "0-30000000", "antenna": "Home Made AI Dipole - It's a Killer", "location": "Chelan, Washington"}, {"name": "BERGEN OP ZOOM, NL🗼LOOP ANT W/E HI-fidelity listening of AM BCB and SW stations", "lat": 51.48, "lon": 4.29, "url": "http://84.25.81.186:8075", "users": 0, "users_max": 3, "bands": "1000-30000000", "antenna": "W/E Wellbrook loop antenna ala1530ln", "location": "BERGEN OP ZOOM WEST NETHERLANDS"}, {"name": "0-30 MHz SDR, ZL1KFM, North Waikato, New Zealand (SDR Upgrade, 80mtr Full Wave Closed Loop Connected). I am experiencing", "lat": -37.4, "lon": 175.13, "url": "http://kiwisdrzl1kfm.ddns.net:8073", "users": 1, "users_max": 4, "bands": "0-30000000", "antenna": "Ukrainian design and built Active Mini-Whip or 80mtr Closed Loop", "location": "Te Kauwhata, New Zealand"}, {"name": "DL2NI, JN48UL, 10k-30 MHz, act.E-field vert.(k", "lat": 48.49, "lon": 9.74, "url": "http://logemann-joerg.de:8074", "users": 0, "users_max": 4, "bands": "10000-30000000", "antenna": "active vertical k", "location": "Laichingen, Germany"}, {"name": "West Connect SDR 2 MW/LW | Sligo, North West Ireland", "lat": 54.05785, "lon": -8.44115, "url": "http://sdr.westconnect.net", "users": 0, "users_max": 2, "bands": "0-30000000", "antenna": "Long Wire E/W", "location": "Culfadda, Ireland"}, {"name": "Melbourne Electronics & Radio Club", "lat": -37.73753, "lon": 144.84008, "url": "http://vk3fsk.proxy.kiwisdr.com", "users": 4, "users_max": 4, "bands": "0-30000000", "antenna": "Off Center Fed Dipole", "location": "Melbourne, Australia"}, {"name": "M0WHU 0-30 MHz SDR | Southend - UK", "lat": 51.57163, "lon": 0.66812, "url": "http://apatheticgeek.ddns.net:8073", "users": 6, "users_max": 8, "bands": "0-30000000", "antenna": "Linear fixed", "location": "Southend - UK"}, {"name": "0-30 MHz SDR, TF3GZ Kopavogur Iceland", "lat": 64.08205, "lon": -21.80273, "url": "http://kop.utvarp.com", "users": 1, "users_max": 8, "bands": "20000-30000000", "antenna": "20 m Wire antenna", "location": "Kopavogur Iceland"}, {"name": "0-30 MHz SDR @ G4GNK, Balderton nr. Newark-on-Trent, Nottinghamshire, England, UK", "lat": 53.06, "lon": -0.78, "url": "http://g4gnk.proxy.kiwisdr.com", "users": 0, "users_max": 4, "bands": "0-30000000", "antenna": "MLA-30+ Active loop", "location": "Balderton nr. Newark-on-Trent, Nottinghamshire, UK"}, {"name": "0-30 MHz SDR, G0DUB, IO83oe | Chester, UK", "lat": 53.17619, "lon": -2.8153, "url": "http://kiwisdr.g0dub.uk:8073", "users": 2, "users_max": 8, "bands": "0-30000000", "antenna": "Small vertical delta loop at ground level", "location": "Chester, UK"}, {"name": "0-30 MHz SDR, N2YO | Chantilly VA, USA", "lat": 38.89649, "lon": -77.47801, "url": "http://kiwisdr.n2yo.net:8073", "users": 1, "users_max": 4, "bands": "0-30000000", "antenna": "MLA-30 Loop Antenna", "location": "Chantilly VA, USA"}, {"name": "KiwiSDR del Radio Club Argentino (LU4AA) ubicado en el Instituto Argentino De Radioastronomía, Provincia de Buenos Aires", "lat": -34.86679, "lon": -58.13965, "url": "http://lu4aa.proxy.kiwisdr.com", "users": 0, "users_max": 3, "bands": "2000000-30000000", "antenna": "Random Wire", "location": "Berazategui, Provincia de Buenos Aires, Argentina"}, {"name": "SDR-PAL-1 (Kiwi) • MEGALOOP • PALLAS, ENONTEKIÖ, LAPLAND, FINLAND 🇫🇮", "lat": 68.17069, "lon": 24.15744, "url": "http://pallas-kiwi-2.ddns.net:8074", "users": 0, "users_max": 3, "bands": "0-30000000", "antenna": "NTi MegaLoop", "location": "Pallas, Enontekiö, Finland"}, {"name": "0-30 MHz SDR | Hoogeveen, Drenthe , Netherlands", "lat": 52.73, "lon": 6.4825, "url": "http://217.62.98.86:8073", "users": 0, "users_max": 3, "bands": "0-30000000", "antenna": "AL 1 Loop", "location": "Hoogeveen, Drenthe , Netherlands"}, {"name": "0-30 MHz SDR, JK1LOT,TOKYO,JAPAN", "lat": 35.54, "lon": 139.46, "url": "http://jk1lot.ham-radio-op.net:8073", "users": 1, "users_max": 4, "bands": "0-30000000", "antenna": "303WA-2", "location": "Tokyo, JAPAN"}, {"name": "KT4RS 0-30 MHz KiwiSDR | Laurel Springs, North Carolina, USA", "lat": 36.39, "lon": -81.3, "url": "http://kiwisdr.itfais.com:8073", "users": 1, "users_max": 4, "bands": "0-30000000", "antenna": "80m-10m EFHW (AM BCB Filter Installed)", "location": "Laurel Springs, North Carolina, USA"}, {"name": "PA3GUK 0-30 MHz SDR | Beilen, Netherlands", "lat": 52.87, "lon": 6.51, "url": "http://21033.proxy.kiwisdr.com", "users": 0, "users_max": 2, "bands": "0-30000000", "antenna": "LZ1AQ-active loop - switchable", "location": "Beilen, Netherlands"}, {"name": "0-30 MHz SDR, DG8EK | Duisburg, Germany only accessible from Germany", "lat": 51.34829, "lon": 6.70367, "url": "http://in-serm.dyndns.org:8073", "users": 6, "users_max": 8, "bands": "50000-30000000", "antenna": "Magnetic Loop", "location": "Duisburg, Germany only accessible from Germany"}, {"name": "0-30 MHz SDR | KM4RT - Tipton Co. TN", "lat": 35.448, "lon": -89.653, "url": "http://km4rt.ddns.net:8073", "users": 1, "users_max": 4, "bands": "0-30000000", "antenna": "80m Full Wave Loop / Mosley TA-63-N Beam", "location": "KM4RT - Tipton Co. TN"}, {"name": "0-30 MHZ KIWISDR | Kamen, Germany", "lat": 51.58, "lon": 7.66, "url": "http://dl1dam.feste-ip.net:8185", "users": 0, "users_max": 4, "bands": "10000-30000000", "antenna": "aktive Loop, Rechteck 2x3m,", "location": "Kamen, Germany"}, {"name": "0-30 MHz SDR, DX6RAN, Negros Occidental, Philippines", "lat": 10.72353, "lon": 122.97332, "url": "http://dx6ran.ddns.net:8073", "users": 1, "users_max": 7, "bands": "0-30000000", "antenna": "40M delta loop over the garden<s> + W6LVP receive loop </s>", "location": "Talisay City, Negros Occidental, Philippines"}, {"name": "0-30 MHz SDR | San Benedetto del Tronto 🇮🇹", "lat": 42.98, "lon": 13.87, "url": "http://fabrys.proxy.kiwisdr.com", "users": 1, "users_max": 1, "bands": "0-30000000", "antenna": "LZ1AQ - Active Loop Antenna", "location": "San Benedetto del Tronto 🇮🇹"}, {"name": "0-30 MHz SDR | Southport, UK", "lat": 53.65, "lon": -2.99, "url": "http://sdr.shortwave.am", "users": 0, "users_max": 2, "bands": "0-30000000", "antenna": "Wellbrook ALA1530 HF Loop Antenna", "location": "Southport, UK"}, {"name": "NJ2US HF Cape May County, NJ USA", "lat": 39.24786, "lon": -74.81344, "url": "http://21610.proxy.kiwisdr.com", "users": 2, "users_max": 4, "bands": "0-30000000", "antenna": "Aziloop Active Orthogonal Loop", "location": "Cape May County, NJ USA"}, {"name": "HF Web SDR Halle ( Saale ) Germany 0-30 MHz", "lat": 51.46764, "lon": 12.00085, "url": "http://db0hal.dyndns.org:8073", "users": 0, "users_max": 4, "bands": "0-30000000", "antenna": "Procom RX5000 vertikal", "location": "Halle an der Saale, Germany"}, {"name": "0-30 MHz SDR PE1RFF | Helmond, Brabant, The Netherlands", "lat": 51.49791, "lon": 5.2557, "url": "http://21934.proxy.kiwisdr.com", "users": 1, "users_max": 4, "bands": "0-30000000", "antenna": "Pre-amp Loop antenna", "location": "Helmond, Brabant, The Netherlands"}, {"name": "10 kHz - 32 MHz W8BUG Knoxville, TN, USA", "lat": 35.94776, "lon": -84.14051, "url": "http://scottgs.com:8073", "users": 1, "users_max": 3, "bands": "10000-32000000", "antenna": "50mm Voltage-Probe @ 7m AGL", "location": "Knoxville, Tennessee, USA"}, {"name": "🍊🥭LU5LCR Paso de la Patria 🥭🍊", "lat": -27.30444, "lon": -58.55384, "url": "http://22200.proxy.kiwisdr.com", "users": 1, "users_max": 4, "bands": "0-30000000", "antenna": "G5RV max. Extended to improve reception in MW", "location": "Paso de la Patria"}, {"name": "0-30 MHz SDR | New Braunfels, TX", "lat": 29.67, "lon": -98.12, "url": "http://newbraunfels.proxy.kiwisdr.com", "users": 3, "users_max": 3, "bands": "0-30000000", "antenna": "Loop On Ground", "location": "New Braunfels, TX"}, {"name": "0-30 MHz SDR, VE3HOA | Ottawa, Canada", "lat": 45.27, "lon": -76.05, "url": "http://ve3hoa.ddns.net:8073", "users": 2, "users_max": 4, "bands": "0-30000000", "antenna": "160 meter Beverage", "location": "Ottawa, Canada"}, {"name": "VP9NI KiwiSDR | Smiths Parish, Bermuda", "lat": 32.31, "lon": -64.75, "url": "http://21778.proxy.kiwisdr.com", "users": 0, "users_max": 3, "bands": "0-30000000", "antenna": "20M delta loop for quieter RX on MW and other bands", "location": "Smiths Parish, Bermuda"}, {"name": "0-30 MHz SDR, DAB956, Cottbus, Germany", "lat": 51.73403, "lon": 14.333, "url": "http://dab956kiwi.proxy.kiwisdr.com", "users": 0, "users_max": 4, "bands": "0-30000000", "antenna": "Blizzard2700", "location": "Cottbus, Germany"}, {"name": "western TF3GZ/TF4AH | Orlygshofn; Iceland", "lat": 65.58048, "lon": -24.13846, "url": "http://orlygshofn.utvarp.com:8080", "users": 4, "users_max": 8, "bands": "100000-30000000", "antenna": "AC marine KUM480-2", "location": "Orlygshofn; Iceland"}, {"name": "0-30 MHz SDR 13OZ1 🌍 | Donauwörth Germany", "lat": 48.70558, "lon": 10.78893, "url": "http://13oz1.ddns.net:8073", "users": 0, "users_max": 4, "bands": "0-30000000", "antenna": "Magnetic Loop 10m", "location": "Donauwörth Germany"}, {"name": "0-30 MHz SDR | Vac,Hungary", "lat": 47.80006, "lon": 19.10494, "url": "http://22638.proxy.kiwisdr.com", "users": 0, "users_max": 4, "bands": "0-30000000", "antenna": "Active Loop Antennas", "location": "Vac,Hungary"}, {"name": "0-30MHz KiwiSDR | SWITZERLAND Zurich Altstetten01 JN47FJ (HB9HEH)", "lat": 47.38, "lon": 8.48, "url": "http://altstetten01.proxy.kiwisdr.com", "users": 0, "users_max": 4, "bands": "0-30000000", "antenna": "GT Nero1 CB Funkantenne ½ Lambda", "location": "SWITZERLAND Zurich Altstetten01 JN47FJ"}, {"name": "SE WASHINGTON BLAIR FARM, USA", "lat": 46.09408, "lon": -119.08753, "url": "http://kiwisdr2blair.ddns.net:8073", "users": 1, "users_max": 3, "bands": "0-30000000", "antenna": "40M EW CFLW 80-6M NS FAN DIPOLE", "location": "S.E. WASHINGTON , USA"}, {"name": "SUOMEN DX-LIITTO (SDXL-PAR) • FINNISH DX-ASSOCIATION (FDXA) • 80M HORISONTAL LOOP • PARAINEN, SOUTH-WEST FINLAND 🇫🇮", "lat": 60.33867, "lon": 22.36465, "url": "http://oh1rj.proxy.kiwisdr.com", "users": 2, "users_max": 4, "bands": "0-30000000", "antenna": "80m horisontal loop", "location": "Parainen, Finland"}, {"name": "0-30 MHz SDR, Bad Ragaz, Switzerland", "lat": 47.02146, "lon": 9.4812, "url": "http://sdr-badragaz.proxy.kiwisdr.com", "users": 0, "users_max": 4, "bands": "0-30000000", "antenna": "TEAM ECO 200 (CB, hidden under a tree)", "location": "Bad Ragaz, Switzerland"}, {"name": "3-30 MHz SDR, VK3CMZ, Victoria", "lat": -36.98, "lon": 143.98, "url": "http://vk3cmz.ddns.net:8074", "users": 2, "users_max": 4, "bands": "3000000-30000000", "antenna": "End Fed Half Wave - Optimised for Amateur Bands 80 .. 10 metres", "location": "Baringhup. Victoria, Australia"}, {"name": "0-30 MHz SDR ( VR2KJ ) | Hong Kong", "lat": 22.35963, "lon": 114.12723, "url": "http://vr2kj.proxy.kiwisdr.com", "users": 3, "users_max": 8, "bands": "0-30000000", "antenna": "Mini Whip", "location": "Hong Kong"}, {"name": "0-30 MHz SDR | Breda, Netherlands", "lat": 51.57139, "lon": 4.7757, "url": "http://21915.proxy.kiwisdr.com", "users": 6, "users_max": 8, "bands": "0-30000000", "antenna": "Wellbrook ALA1530LN<br>Beaming E/W (Indoors due to Apartment restrictions)<br>", "location": "Breda, Netherlands"}, {"name": "0-30 MHz Hulk Smash KiwiSDR - Dayton, OH, United States", "lat": 39.73264, "lon": -84.02718, "url": "http://22209.proxy.kiwisdr.com", "users": 0, "users_max": 4, "bands": "0-30000000", "antenna": "Long Wire", "location": "Dayton, Ohio - United States"}, {"name": "G3ROO KiwiSDR | Clipgate Farm, Nr Dover. UK", "lat": 51.1863, "lon": 1.1558, "url": "http://80.252.115.225:8073", "users": 0, "users_max": 4, "bands": "0-11000000", "antenna": "Long Wire", "location": "Clipgate Farm, Nr Dover. UK"}, {"name": "0.1-30 MHz SDR#2 at HL3AMO - Daejeon, Rep. of KOREA", "lat": 36.387, "lon": 127.321, "url": "http://hik.iptime.org:8075", "users": 3, "users_max": 3, "bands": "300000-30000000", "antenna": "MLA-30A, 65-meter above ground.", "location": "Daejeon, Republic of KOREA"}, {"name": "DG0JBD Marienberg Germany", "lat": 50.67, "lon": 13.26, "url": "http://kiwi-dg0jbd.stbach.de", "users": 0, "users_max": 4, "bands": "0-30000000", "antenna": "Magnetische Loop", "location": "Marienberg, Germany"}, {"name": "N8GA Flatfoot KiwiSDR #1 | Cable, OH", "lat": 40.18712, "lon": -83.64869, "url": "http://167.20.189.92:8073", "users": 1, "users_max": 8, "bands": "0-30000000", "antenna": "Clifton Z1501", "location": "Cable, OH"}, {"name": "VK4KY 0-30 MHz SDR | Esk, Queensland, Australia", "lat": -27.257, "lon": 152.3605, "url": "http://22537.proxy.kiwisdr.com", "users": 0, "users_max": 8, "bands": "0-30000000", "antenna": "Broadband Wire", "location": "Esk, Queensland, Australia"}, {"name": "0-30 MHz SDR2 | Senden, Germany", "lat": 51.86105, "lon": 7.48925, "url": "http://dl5ycx.proxy.kiwisdr.com", "users": 0, "users_max": 4, "bands": "0-30000000", "antenna": "Magnetic-Loop | PreAmp LZ1AQ | Remote-Antenna-Switch", "location": "Senden, Germany"}, {"name": "N8GA Flatfoot KiwiSDR #2 | Cable, OH", "lat": 40.18712, "lon": -83.64869, "url": "http://hill.n8ga.org:8074", "users": 2, "users_max": 8, "bands": "0-30000000", "antenna": "Clifton Z1501D (BCB filter)", "location": "Cable, OH"}, {"name": "N8BTR 0-30 MHz SDR @ Tall Pines Cabin | Crivitz, WI, USA", "lat": 45.201, "lon": -88.167, "url": "http://21040.proxy.kiwisdr.com", "users": 2, "users_max": 3, "bands": "0-30000000", "antenna": "Day: 40m horiz loop @34ft: Night: Inv Vee @ 56 ft", "location": "Crivitz, WI, USA"}, {"name": "0-30 MHz SDR | Palm Harbor, Florida", "lat": 28.04417, "lon": -82.7331, "url": "http://22315.proxy.kiwisdr.com", "users": 0, "users_max": 3, "bands": "0-30000000", "antenna": "Diamond T2FD or DX Engineering Loop", "location": "Palm Harbor, Florida"}, {"name": "0-30 MHz SDR | Wels AT", "lat": 48.15224, "lon": 13.99846, "url": "http://witikiwi.ddns.net:8073", "users": 6, "users_max": 8, "bands": "0-30000000", "antenna": "Active Loop / Active Dipol", "location": "Wels AT"}, {"name": "0-30 MHz SDR | COVENTRY, TWP., OH", "lat": 41.01, "lon": -81.56, "url": "http://162.199.177.108:8073", "users": 0, "users_max": 3, "bands": "0-30000000", "antenna": "132' END-FEED", "location": "COVENTRY, TWP., OH"}, {"name": "DM9SC kiwiSDR | Memmingen, Germany", "lat": 47.98426, "lon": 10.15887, "url": "http://22140.proxy.kiwisdr.com", "users": 0, "users_max": 2, "bands": "20000-30000000", "antenna": "Boni-Whip", "location": "Memmingen, Germany"}, {"name": "ZL1HEX | Onewhero, New Zealand", "lat": -37.3314, "lon": 174.90855, "url": "http://kiwisdr.zl1hex.com:8073", "users": 1, "users_max": 3, "bands": "0-30000000", "antenna": "Long wire (in testing)", "location": "Onewhero, New Zealand"}, {"name": "0-30 MHz -YO8SGV- KN37EX- KiwiSDR | Dorohoi, Romania", "lat": 47.96881, "lon": 26.379, "url": "http://kiwisdr-dorohoi.ddns.net:8073", "users": 0, "users_max": 4, "bands": "0-30000000", "antenna": "Flag antenna, 20m Long, 8 m above ground, 860 ohmi termination rezistor, 16:1 balun.", "location": "Dorohoi, Romania"}, {"name": "0-30 MHz SDR, I1cra/Iz1glg | Cassine, Italy", "lat": 44.77896, "lon": 8.5311, "url": "http://kiwisdr.briata.org:8073", "users": 2, "users_max": 4, "bands": "0-30000000", "antenna": "Windom", "location": "Cassine, Italy"}, {"name": "0-30 MHz SDR | Rotterdam, The Netherlands", "lat": 51.96, "lon": 4.55, "url": "http://21774.proxy.kiwisdr.com", "users": 0, "users_max": 4, "bands": "0-30000000", "antenna": "Mini-Whip", "location": "Rotterdam, The Netherlands"}, {"name": "W4GUZ .5-30 MHz SDR Bakersville, North Carolina", "lat": 36.02734, "lon": -82.12578, "url": "http://ssi.proxy.kiwisdr.com", "users": 1, "users_max": 1, "bands": "500000-30000000", "antenna": "80-40-20m Fan dipole", "location": "Bakersville, NC, USA"}, {"name": "K3FEF Milford PA USA", "lat": 41.32595, "lon": -74.92209, "url": "http://kiwisdr.k3fef.com:8073", "users": 4, "users_max": 4, "bands": "0-30000000", "antenna": "Hermes Loop", "location": "Milford, PA USA"}, {"name": "🗲 0-30MHz 8 x Kiwi Card SDR, VK3KHZ, Victoria, Australia 🗲", "lat": -37.76254, "lon": 145.31815, "url": "http://sdr-amradioantennas.com:8072", "users": 0, "users_max": 4, "bands": "0-30000000", "antenna": "T2FD 25m long for 2.5-30MHz & Inv-L 40m long & 10m high for 0-2.5MHz", "location": "Victoria, Australia"}, {"name": "🗲 0-30MHz 8 x Kiwi Card SDR, VK3KHZ, Victoria, Australia 🗲", "lat": -37.76254, "lon": 145.31815, "url": "http://sdr-amradioantennas.com:8078", "users": 6, "users_max": 8, "bands": "0-30000000", "antenna": "T2FD 25m long for 2.5-30MHz & Inv-L 40m long & 10m high for 0-2.5MHz", "location": "Victoria, Australia"}, {"name": "K6VZK 0-30 MHZ KiwiSDR #2 | Palomar Moutain, CA", "lat": 33.31, "lon": -116.85, "url": "http://palomar-2.proxy.kiwisdr.com", "users": 1, "users_max": 1, "bands": "0-30000000", "antenna": "IDAFAB / N1CL Designs Active Antenna", "location": "Palomar Moutain, CA"}, {"name": "0-30 MHz SDR | Nottingham, England.", "lat": 53.01154, "lon": -1.2005, "url": "http://21798.proxy.kiwisdr.com", "users": 0, "users_max": 4, "bands": "0-30000000", "antenna": "Trapped doublet @ 40ft.", "location": "Nottingham, England."}, {"name": "0-30 MHz SDR#2, DG2SAX, Albstadt/Germany", "lat": 48.27, "lon": 9.01, "url": "http://dg2sax.ddns.net:8074", "users": 0, "users_max": 4, "bands": "10000-30000000", "antenna": "Long Wire indoor", "location": "Albstadt, Germany"}, {"name": "F5EFK SDR | Vannes , France", "lat": 47.66, "lon": -2.75, "url": "http://22111.proxy.kiwisdr.com", "users": 0, "users_max": 4, "bands": "0-30000000", "antenna": "Long Wire 20m", "location": "Vannes , France"}, {"name": "0-30 MHz SDR | Kingsville On", "lat": 42.0523, "lon": -82.6721, "url": "http://22341.proxy.kiwisdr.com", "users": 0, "users_max": 2, "bands": "0-30000000", "antenna": "Loop", "location": "Kingsville On"}, {"name": "UZNAM SDR SWINOUJSCIE SP1 XLX194 10Mhz-30Mhz | Swinojscie, Poland", "lat": 53.905, "lon": 14.2638, "url": "http://22863.proxy.kiwisdr.com", "users": 0, "users_max": 4, "bands": "100000-30000000", "antenna": "COBWeeB", "location": "Swinojscie, Poland"}, {"name": "0 - 30MHz SDR - NNODE Radio 3 | Mildura, Victoria", "lat": -34.14017, "lon": 142.03461, "url": "http://22973.proxy.kiwisdr.com", "users": 0, "users_max": 4, "bands": "0-30000000", "antenna": "20m random wire loop", "location": "Mildura, Victoria"}, {"name": "0-30 MHz SDR, 14HAM01 / Daviken - Chantilly (60) North France", "lat": 49.19316, "lon": 2.46874, "url": "http://chantilly-sdr.ddns.net:8073", "users": 0, "users_max": 3, "bands": "0-30000000", "antenna": "Tagra BT-101 (astroplane)", "location": "Chantilly - France"}, {"name": "Dijon Sud-Est | Bourgogne, France", "lat": 47.19696, "lon": 5.20374, "url": "http://dijonse.fr:8073", "users": 0, "users_max": 3, "bands": "0-30000000", "antenna": "Inverted V 40m band dipole.", "location": "Bourgogne, France"}, {"name": "HK4RAU SDR 0-30 MHz. | HK4RAU.", "lat": 5.67512, "lon": -75.72374, "url": "http://hk4rau.proxy.kiwisdr.com", "users": 7, "users_max": 7, "bands": "0-30000000", "antenna": "DIPOLO", "location": "HK4RAU."}, {"name": "N3VLF (formerly KM4SII) KiwiSDR | Clemmons, NC, USA", "lat": 36.06, "lon": -80.44, "url": "http://km4sii.proxy.kiwisdr.com", "users": 1, "users_max": 4, "bands": "0-30000000", "antenna": "40m Dipole", "location": "Clemmons, NC, USA"},